[
  {
    "fips": "31039",
    "state": "Nebraska",
    "name": "Cuming County",
    "lat": 41.9158651,
    "lng": -96.7885168
  },
  {
    "fips": "53069",
    "state": "Washington",
    "name": "Wahkiakum County",
    "lat": 46.2946377,
    "lng": -123.4244583
  },
  {
    "fips": "35011",
    "state": "New Mexico",
    "name": "De Baca County",
    "lat": 34.3592729,
    "lng": -104.3686961
  },
  {
    "fips": "31109",
    "state": "Nebraska",
    "name": "Lancaster County",
    "lat": 40.7835474,
    "lng": -96.6886584
  },
  {
    "fips": "31129",
    "state": "Nebraska",
    "name": "Nuckolls County",
    "lat": 40.1764918,
    "lng": -98.0468422
  },
  {
    "fips": "72085",
    "name": "Las Piedras Municipio",
    "lat": 18.1871483,
    "lng": -65.871189
  },
  {
    "fips": "46099",
    "state": "South Dakota",
    "name": "Minnehaha County",
    "lat": 43.6674723,
    "lng": -96.7957261
  },
  {
    "fips": "48327",
    "state": "Texas",
    "name": "Menard County",
    "lat": 30.8843655,
    "lng": -99.8539896
  },
  {
    "fips": "06091",
    "state": "California",
    "name": "Sierra County",
    "lat": 39.5769252,
    "lng": -120.5219926
  },
  {
    "fips": "21053",
    "state": "Kentucky",
    "name": "Clinton County",
    "lat": 36.7288647,
    "lng": -85.1534262
  },
  {
    "fips": "39063",
    "state": "Ohio",
    "name": "Hancock County",
    "lat": 41.0004711,
    "lng": -83.6660335
  },
  {
    "fips": "48189",
    "state": "Texas",
    "name": "Hale County",
    "lat": 34.0684364,
    "lng": -101.8228879
  },
  {
    "fips": "01027",
    "state": "Alabama",
    "name": "Clay County",
    "lat": 33.2703999,
    "lng": -85.8635254
  },
  {
    "fips": "48011",
    "state": "Texas",
    "name": "Armstrong County",
    "lat": 34.964179,
    "lng": -101.3566363
  },
  {
    "fips": "39003",
    "state": "Ohio",
    "name": "Allen County",
    "lat": 40.7716274,
    "lng": -84.1061032
  },
  {
    "fips": "13189",
    "state": "Geogia",
    "name": "McDuffie County",
    "lat": 33.4824637,
    "lng": -82.473188
  },
  {
    "fips": "55111",
    "state": "Wisconsin",
    "name": "Sauk County",
    "lat": 43.4279976,
    "lng": -89.943329
  },
  {
    "fips": "05137",
    "state": "Arkansas",
    "name": "Stone County",
    "lat": 35.8570312,
    "lng": -92.1405728
  },
  {
    "fips": "41063",
    "state": "Oregon",
    "name": "Wallowa County",
    "lat": 45.593753,
    "lng": -117.1855796
  },
  {
    "fips": "42007",
    "state": "Pennsylvania",
    "name": "Beaver County",
    "lat": 40.6841401,
    "lng": -80.3507209
  },
  {
    "fips": "28061",
    "state": "Mississippi",
    "name": "Jasper County",
    "lat": 32.0169894,
    "lng": -89.1194302
  },
  {
    "fips": "29083",
    "state": "Missouri",
    "name": "Henry County",
    "lat": 38.3864909,
    "lng": -93.7926278
  },
  {
    "fips": "08109",
    "state": "Colorado",
    "name": "Saguache County",
    "lat": 38.0316514,
    "lng": -106.2346662
  },
  {
    "fips": "37037",
    "state": "North Carolina",
    "name": "Chatham County",
    "lat": 35.7049939,
    "lng": -79.2514542
  },
  {
    "fips": "49033",
    "state": "Utah",
    "name": "Rich County",
    "lat": 41.6275976,
    "lng": -111.2402269
  },
  {
    "fips": "40001",
    "state": "Oklahoma",
    "name": "Adair County",
    "lat": 35.8980428,
    "lng": -94.6510258
  },
  {
    "fips": "39085",
    "state": "Ohio",
    "name": "Lake County",
    "lat": 41.9241163,
    "lng": -81.3926429
  },
  {
    "fips": "51775",
    "state": "Virginia",
    "name": "Salem city",
    "lat": 37.2853329,
    "lng": -80.0552407
  },
  {
    "fips": "51121",
    "state": "Virginia",
    "name": "Montgomery County",
    "lat": 37.1755344,
    "lng": -80.3877913
  },
  {
    "fips": "47065",
    "state": "Tennessee",
    "name": "Hamilton County",
    "lat": 35.159186,
    "lng": -85.2022955
  },
  {
    "fips": "35035",
    "state": "New Mexico",
    "name": "Otero County",
    "lat": 32.5887764,
    "lng": -105.7810785
  },
  {
    "fips": "35003",
    "state": "New Mexico",
    "name": "Catron County",
    "lat": 33.9018583,
    "lng": -108.3920882
  },
  {
    "fips": "01091",
    "state": "Alabama",
    "name": "Marengo County",
    "lat": 32.2475911,
    "lng": -87.791091
  },
  {
    "fips": "56023",
    "state": "Wyoming",
    "name": "Lincoln County",
    "lat": 42.2299932,
    "lng": -110.6829614
  },
  {
    "fips": "29011",
    "state": "Missouri",
    "name": "Barton County",
    "lat": 37.5007989,
    "lng": -94.3440893
  },
  {
    "fips": "48057",
    "state": "Texas",
    "name": "Calhoun County",
    "lat": 28.4417191,
    "lng": -96.5795739
  },
  {
    "fips": "51735",
    "state": "Virginia",
    "name": "Poquoson city",
    "lat": 37.1283599,
    "lng": -76.3035337
  },
  {
    "fips": "54075",
    "state": "West Virginia",
    "name": "Pocahontas County",
    "lat": 38.332606,
    "lng": -80.0101207
  },
  {
    "fips": "48077",
    "state": "Texas",
    "name": "Clay County",
    "lat": 33.7859042,
    "lng": -98.2129174
  },
  {
    "fips": "51095",
    "state": "Virginia",
    "name": "James City County",
    "lat": 37.3248367,
    "lng": -76.7778878
  },
  {
    "fips": "31101",
    "state": "Nebraska",
    "name": "Keith County",
    "lat": 41.1942448,
    "lng": -101.6444493
  },
  {
    "fips": "31137",
    "state": "Nebraska",
    "name": "Phelps County",
    "lat": 40.5163647,
    "lng": -99.4065568
  },
  {
    "fips": "22019",
    "state": "Louisiana",
    "name": "Calcasieu Parish",
    "lat": 30.2295588,
    "lng": -93.3580154
  },
  {
    "fips": "22111",
    "state": "Louisiana",
    "name": "Union Parish",
    "lat": 32.8293486,
    "lng": -92.3756501
  },
  {
    "fips": "40135",
    "state": "Oklahoma",
    "name": "Sequoyah County",
    "lat": 35.5024345,
    "lng": -94.7507569
  },
  {
    "fips": "01049",
    "state": "Alabama",
    "name": "DeKalb County",
    "lat": 34.460929,
    "lng": -85.803992
  },
  {
    "fips": "36101",
    "state": "New York",
    "name": "Steuben County",
    "lat": 42.2667252,
    "lng": -77.3855253
  },
  {
    "fips": "42053",
    "state": "Pennsylvania",
    "name": "Forest County",
    "lat": 41.513304,
    "lng": -79.249705
  },
  {
    "fips": "22105",
    "state": "Louisiana",
    "name": "Tangipahoa Parish",
    "lat": 30.6215802,
    "lng": -90.4066329
  },
  {
    "fips": "51179",
    "state": "Virginia",
    "name": "Stafford County",
    "lat": 38.4153856,
    "lng": -77.4548719
  },
  {
    "fips": "26109",
    "state": "Michigan",
    "name": "Menominee County",
    "lat": 45.5382374,
    "lng": -87.4929489
  },
  {
    "fips": "18073",
    "state": "Indiana",
    "name": "Jasper County",
    "lat": 41.0176883,
    "lng": -87.1188137
  },
  {
    "fips": "13025",
    "state": "Geogia",
    "name": "Brantley County",
    "lat": 31.1973339,
    "lng": -81.9829779
  },
  {
    "fips": "13171",
    "state": "Geogia",
    "name": "Lamar County",
    "lat": 33.0744604,
    "lng": -84.1467206
  },
  {
    "fips": "18151",
    "state": "Indiana",
    "name": "Steuben County",
    "lat": 41.643467,
    "lng": -85.0024051
  },
  {
    "fips": "48361",
    "state": "Texas",
    "name": "Orange County",
    "lat": 30.1223229,
    "lng": -93.8940999
  },
  {
    "fips": "39047",
    "state": "Ohio",
    "name": "Fayette County",
    "lat": 39.5552748,
    "lng": -83.4619451
  },
  {
    "fips": "25015",
    "state": "Massachusetts",
    "name": "Hampshire County",
    "lat": 42.3394593,
    "lng": -72.6636936
  },
  {
    "fips": "21003",
    "state": "Kentucky",
    "name": "Allen County",
    "lat": 36.7507703,
    "lng": -86.192458
  },
  {
    "fips": "37001",
    "state": "North Carolina",
    "name": "Alamance County",
    "lat": 36.0439535,
    "lng": -79.4005733
  },
  {
    "fips": "20073",
    "state": "Kansas",
    "name": "Greenwood County",
    "lat": 37.8793471,
    "lng": -96.2417321
  },
  {
    "fips": "25025",
    "state": "Massachusetts",
    "name": "Suffolk County",
    "lat": 42.33196,
    "lng": -71.0201725
  },
  {
    "fips": "16051",
    "state": "Idaho",
    "name": "Jefferson County",
    "lat": 43.7969649,
    "lng": -112.3185879
  },
  {
    "fips": "48177",
    "state": "Texas",
    "name": "Gonzales County",
    "lat": 29.4619169,
    "lng": -97.4918609
  },
  {
    "fips": "47115",
    "state": "Tennessee",
    "name": "Marion County",
    "lat": 35.1334215,
    "lng": -85.618399
  },
  {
    "fips": "26007",
    "state": "Michigan",
    "name": "Alpena County",
    "lat": 44.894954,
    "lng": -83.4265739
  },
  {
    "fips": "21231",
    "state": "Kentucky",
    "name": "Wayne County",
    "lat": 36.8020113,
    "lng": -84.8304404
  },
  {
    "fips": "47185",
    "state": "Tennessee",
    "name": "White County",
    "lat": 35.9270621,
    "lng": -85.4557657
  },
  {
    "fips": "48147",
    "state": "Texas",
    "name": "Fannin County",
    "lat": 33.5911611,
    "lng": -96.1049882
  },
  {
    "fips": "20043",
    "state": "Kansas",
    "name": "Doniphan County",
    "lat": 39.7885021,
    "lng": -95.1472253
  },
  {
    "fips": "48265",
    "state": "Texas",
    "name": "Kerr County",
    "lat": 30.059953,
    "lng": -99.3533388
  },
  {
    "fips": "12053",
    "state": "Florida",
    "name": "Hernando County",
    "lat": 28.5730426,
    "lng": -82.4662272
  },
  {
    "fips": "12129",
    "state": "Florida",
    "name": "Wakulla County",
    "lat": 30.1403575,
    "lng": -84.3751122
  },
  {
    "fips": "12131",
    "state": "Florida",
    "name": "Walton County",
    "lat": 30.6312106,
    "lng": -86.1766139
  },
  {
    "fips": "28017",
    "state": "Mississippi",
    "name": "Chickasaw County",
    "lat": 33.9216539,
    "lng": -88.9458075
  },
  {
    "fips": "02130",
    "state": "Alaska",
    "name": "Ketchikan Gateway Borough",
    "lat": 55.4499378,
    "lng": -131.1066847
  },
  {
    "fips": "26035",
    "state": "Michigan",
    "name": "Clare County",
    "lat": 43.9911368,
    "lng": -84.8383253
  },
  {
    "fips": "20157",
    "state": "Kansas",
    "name": "Republic County",
    "lat": 39.8289103,
    "lng": -97.6509213
  },
  {
    "fips": "12127",
    "state": "Florida",
    "name": "Volusia County",
    "lat": 29.057769,
    "lng": -81.161792
  },
  {
    "fips": "40017",
    "state": "Oklahoma",
    "name": "Canadian County",
    "lat": 35.54341,
    "lng": -97.9798435
  },
  {
    "fips": "72115",
    "name": "Quebradillas Municipio",
    "lat": 18.466357,
    "lng": -66.9276025
  },
  {
    "fips": "78030",
    "name": "St. Thomas Island",
    "lat": 18.3267484,
    "lng": -64.9712504
  },
  {
    "fips": "13115",
    "state": "Geogia",
    "name": "Floyd County",
    "lat": 34.2636769,
    "lng": -85.2137297
  },
  {
    "fips": "32001",
    "state": "Nevada",
    "name": "Churchill County",
    "lat": 39.53771,
    "lng": -118.2641653
  },
  {
    "fips": "31181",
    "state": "Nebraska",
    "name": "Webster County",
    "lat": 40.1806461,
    "lng": -98.4985897
  },
  {
    "fips": "17067",
    "state": "Illinois",
    "name": "Hancock County",
    "lat": 40.4057924,
    "lng": -91.1679875
  },
  {
    "fips": "46067",
    "state": "South Dakota",
    "name": "Hutchinson County",
    "lat": 43.3367101,
    "lng": -97.7493828
  },
  {
    "fips": "41013",
    "state": "Oregon",
    "name": "Crook County",
    "lat": 44.1630537,
    "lng": -120.3715849
  },
  {
    "fips": "50011",
    "state": "Vermont",
    "name": "Franklin County",
    "lat": 44.8589643,
    "lng": -72.9094023
  },
  {
    "fips": "26103",
    "state": "Michigan",
    "name": "Marquette County",
    "lat": 46.6566287,
    "lng": -87.583982
  },
  {
    "fips": "09007",
    "state": "Connecticut",
    "name": "Middlesex County",
    "lat": 41.4330028,
    "lng": -72.5227802
  },
  {
    "fips": "37057",
    "state": "North Carolina",
    "name": "Davidson County",
    "lat": 35.7951312,
    "lng": -80.207107
  },
  {
    "fips": "17025",
    "state": "Illinois",
    "name": "Clay County",
    "lat": 38.746832,
    "lng": -88.4823443
  },
  {
    "fips": "29103",
    "state": "Missouri",
    "name": "Knox County",
    "lat": 40.1367764,
    "lng": -92.1468094
  },
  {
    "fips": "29117",
    "state": "Missouri",
    "name": "Livingston County",
    "lat": 39.778587,
    "lng": -93.5482013
  },
  {
    "fips": "42117",
    "state": "Pennsylvania",
    "name": "Tioga County",
    "lat": 41.7668593,
    "lng": -77.2572881
  },
  {
    "fips": "31043",
    "state": "Nebraska",
    "name": "Dakota County",
    "lat": 42.3916449,
    "lng": -96.5613555
  },
  {
    "fips": "26089",
    "state": "Michigan",
    "name": "Leelanau County",
    "lat": 45.1461816,
    "lng": -86.051574
  },
  {
    "fips": "51181",
    "state": "Virginia",
    "name": "Surry County",
    "lat": 37.1197611,
    "lng": -76.8801717
  },
  {
    "fips": "48391",
    "state": "Texas",
    "name": "Refugio County",
    "lat": 28.3127162,
    "lng": -97.1613657
  },
  {
    "fips": "39017",
    "state": "Ohio",
    "name": "Butler County",
    "lat": 39.4397469,
    "lng": -84.5657341
  },
  {
    "fips": "13273",
    "state": "Geogia",
    "name": "Terrell County",
    "lat": 31.7771909,
    "lng": -84.4394464
  },
  {
    "fips": "13063",
    "state": "Geogia",
    "name": "Clayton County",
    "lat": 33.5426863,
    "lng": -84.3555727
  },
  {
    "fips": "56013",
    "state": "Wyoming",
    "name": "Fremont County",
    "lat": 43.054831,
    "lng": -108.6089349
  },
  {
    "fips": "18115",
    "state": "Indiana",
    "name": "Ohio County",
    "lat": 38.940527,
    "lng": -84.9642994
  },
  {
    "fips": "13073",
    "state": "Geogia",
    "name": "Columbia County",
    "lat": 33.5476313,
    "lng": -82.2522957
  },
  {
    "fips": "08115",
    "state": "Colorado",
    "name": "Sedgwick County",
    "lat": 40.8715679,
    "lng": -102.3553579
  },
  {
    "fips": "30065",
    "state": "Montana",
    "name": "Musselshell County",
    "lat": 46.5052807,
    "lng": -108.4397631
  },
  {
    "fips": "42043",
    "state": "Pennsylvania",
    "name": "Dauphin County",
    "lat": 40.4125646,
    "lng": -76.7926343
  },
  {
    "fips": "46101",
    "state": "South Dakota",
    "name": "Moody County",
    "lat": 44.0124293,
    "lng": -96.6760536
  },
  {
    "fips": "54079",
    "state": "West Virginia",
    "name": "Putnam County",
    "lat": 38.5105128,
    "lng": -81.906109
  },
  {
    "fips": "34037",
    "state": "New Jersey",
    "name": "Sussex County",
    "lat": 41.1374404,
    "lng": -74.6918398
  },
  {
    "fips": "20039",
    "state": "Kansas",
    "name": "Decatur County",
    "lat": 39.783542,
    "lng": -100.4597084
  },
  {
    "fips": "18123",
    "state": "Indiana",
    "name": "Perry County",
    "lat": 38.0814361,
    "lng": -86.6265397
  },
  {
    "fips": "28145",
    "state": "Mississippi",
    "name": "Union County",
    "lat": 34.4895325,
    "lng": -89.0023393
  },
  {
    "fips": "31015",
    "state": "Nebraska",
    "name": "Boyd County",
    "lat": 42.8944477,
    "lng": -98.7730221
  },
  {
    "fips": "27095",
    "state": "Minnesota",
    "name": "Mille Lacs County",
    "lat": 45.9290434,
    "lng": -93.6329964
  },
  {
    "fips": "38099",
    "state": "North Dakota",
    "name": "Walsh County",
    "lat": 48.3769789,
    "lng": -97.7222304
  },
  {
    "fips": "39115",
    "state": "Ohio",
    "name": "Morgan County",
    "lat": 39.6249458,
    "lng": -81.8616967
  },
  {
    "fips": "39133",
    "state": "Ohio",
    "name": "Portage County",
    "lat": 41.1688366,
    "lng": -81.197042
  },
  {
    "fips": "56041",
    "state": "Wyoming",
    "name": "Uinta County",
    "lat": 41.2847255,
    "lng": -110.5589468
  },
  {
    "fips": "32013",
    "state": "Nevada",
    "name": "Humboldt County",
    "lat": 41.4079136,
    "lng": -118.1275915
  },
  {
    "fips": "48247",
    "state": "Texas",
    "name": "Jim Hogg County",
    "lat": 27.0412118,
    "lng": -98.700127
  },
  {
    "fips": "08017",
    "state": "Colorado",
    "name": "Cheyenne County",
    "lat": 38.8353865,
    "lng": -102.6045852
  },
  {
    "fips": "41005",
    "state": "Oregon",
    "name": "Clackamas County",
    "lat": 45.1604934,
    "lng": -122.1951274
  },
  {
    "fips": "05113",
    "state": "Arkansas",
    "name": "Polk County",
    "lat": 34.4909149,
    "lng": -94.2308841
  },
  {
    "fips": "13193",
    "state": "Geogia",
    "name": "Macon County",
    "lat": 32.3626859,
    "lng": -84.0512306
  },
  {
    "fips": "18007",
    "state": "Indiana",
    "name": "Benton County",
    "lat": 40.6009448,
    "lng": -87.3148463
  },
  {
    "fips": "47129",
    "state": "Tennessee",
    "name": "Morgan County",
    "lat": 36.138697,
    "lng": -84.6392616
  },
  {
    "fips": "46043",
    "state": "South Dakota",
    "name": "Douglas County",
    "lat": 43.3915064,
    "lng": -98.3584331
  },
  {
    "fips": "24047",
    "state": "Maryland",
    "name": "Worcester County",
    "lat": 38.2221332,
    "lng": -75.3099315
  },
  {
    "fips": "17185",
    "state": "Illinois",
    "name": "Wabash County",
    "lat": 38.4458209,
    "lng": -87.8391674
  },
  {
    "fips": "18069",
    "state": "Indiana",
    "name": "Huntington County",
    "lat": 40.8263938,
    "lng": -85.4785975
  },
  {
    "fips": "21209",
    "state": "Kentucky",
    "name": "Scott County",
    "lat": 38.2898822,
    "lng": -84.5793761
  },
  {
    "fips": "19053",
    "state": "Iowa",
    "name": "Decatur County",
    "lat": 40.7363787,
    "lng": -93.7845799
  },
  {
    "fips": "18169",
    "state": "Indiana",
    "name": "Wabash County",
    "lat": 40.8437475,
    "lng": -85.7951915
  },
  {
    "fips": "18003",
    "state": "Indiana",
    "name": "Allen County",
    "lat": 41.0918553,
    "lng": -85.0722302
  },
  {
    "fips": "18099",
    "state": "Indiana",
    "name": "Marshall County",
    "lat": 41.3250032,
    "lng": -86.2690363
  },
  {
    "fips": "31171",
    "state": "Nebraska",
    "name": "Thomas County",
    "lat": 41.8486202,
    "lng": -100.5069105
  },
  {
    "fips": "38085",
    "state": "North Dakota",
    "name": "Sioux County",
    "lat": 46.1106181,
    "lng": -101.061284
  },
  {
    "fips": "48127",
    "state": "Texas",
    "name": "Dimmit County",
    "lat": 28.4235871,
    "lng": -99.7658713
  },
  {
    "fips": "27045",
    "state": "Minnesota",
    "name": "Fillmore County",
    "lat": 43.6791876,
    "lng": -92.0939452
  },
  {
    "fips": "45023",
    "state": "South Carolina",
    "name": "Chester County",
    "lat": 34.689345,
    "lng": -81.161249
  },
  {
    "fips": "27073",
    "state": "Minnesota",
    "name": "Lac qui Parle County",
    "lat": 44.999855,
    "lng": -96.1768363
  },
  {
    "fips": "49005",
    "state": "Utah",
    "name": "Cache County",
    "lat": 41.7341676,
    "lng": -111.744568
  },
  {
    "fips": "55093",
    "state": "Wisconsin",
    "name": "Pierce County",
    "lat": 44.7253365,
    "lng": -92.4262793
  },
  {
    "fips": "13049",
    "state": "Geogia",
    "name": "Charlton County",
    "lat": 30.7799036,
    "lng": -82.1396442
  },
  {
    "fips": "13233",
    "state": "Geogia",
    "name": "Polk County",
    "lat": 33.9960153,
    "lng": -85.1883384
  },
  {
    "fips": "17113",
    "state": "Illinois",
    "name": "McLean County",
    "lat": 40.4945594,
    "lng": -88.8445391
  },
  {
    "fips": "23001",
    "state": "Maine",
    "name": "Androscoggin County",
    "lat": 44.1676811,
    "lng": -70.2074347
  },
  {
    "fips": "16055",
    "state": "Idaho",
    "name": "Kootenai County",
    "lat": 47.6771129,
    "lng": -116.6949184
  },
  {
    "fips": "32003",
    "state": "Nevada",
    "name": "Clark County",
    "lat": 36.2142575,
    "lng": -115.013812
  },
  {
    "fips": "20147",
    "state": "Kansas",
    "name": "Phillips County",
    "lat": 39.7845058,
    "lng": -99.3421498
  },
  {
    "fips": "31089",
    "state": "Nebraska",
    "name": "Holt County",
    "lat": 42.4592867,
    "lng": -98.7847662
  },
  {
    "fips": "29101",
    "state": "Missouri",
    "name": "Johnson County",
    "lat": 38.741528,
    "lng": -93.8118634
  },
  {
    "fips": "55063",
    "state": "Wisconsin",
    "name": "La Crosse County",
    "lat": 43.9082222,
    "lng": -91.1117584
  },
  {
    "fips": "22021",
    "state": "Louisiana",
    "name": "Caldwell Parish",
    "lat": 32.1012195,
    "lng": -92.1142311
  },
  {
    "fips": "21061",
    "state": "Kentucky",
    "name": "Edmonson County",
    "lat": 37.2275136,
    "lng": -86.2180153
  },
  {
    "fips": "17005",
    "state": "Illinois",
    "name": "Bond County",
    "lat": 38.885924,
    "lng": -89.4365916
  },
  {
    "fips": "17009",
    "state": "Illinois",
    "name": "Brown County",
    "lat": 39.9620694,
    "lng": -90.7503095
  },
  {
    "fips": "27085",
    "state": "Minnesota",
    "name": "McLeod County",
    "lat": 44.8216437,
    "lng": -94.2723203
  },
  {
    "fips": "55033",
    "state": "Wisconsin",
    "name": "Dunn County",
    "lat": 44.9477408,
    "lng": -91.8977203
  },
  {
    "fips": "08027",
    "state": "Colorado",
    "name": "Custer County",
    "lat": 38.1019939,
    "lng": -105.3735148
  },
  {
    "fips": "29123",
    "state": "Missouri",
    "name": "Madison County",
    "lat": 37.4732347,
    "lng": -90.3454526
  },
  {
    "fips": "48353",
    "state": "Texas",
    "name": "Nolan County",
    "lat": 32.3123379,
    "lng": -100.4181078
  },
  {
    "fips": "42127",
    "state": "Pennsylvania",
    "name": "Wayne County",
    "lat": 41.6470068,
    "lng": -75.293193
  },
  {
    "fips": "36091",
    "state": "New York",
    "name": "Saratoga County",
    "lat": 43.1061353,
    "lng": -73.8553872
  },
  {
    "fips": "48041",
    "state": "Texas",
    "name": "Brazos County",
    "lat": 30.6567132,
    "lng": -96.3023935
  },
  {
    "fips": "40095",
    "state": "Oklahoma",
    "name": "Marshall County",
    "lat": 34.0270068,
    "lng": -96.770533
  },
  {
    "fips": "24001",
    "state": "Maryland",
    "name": "Allegany County",
    "lat": 39.6123134,
    "lng": -78.7031037
  },
  {
    "fips": "54103",
    "state": "West Virginia",
    "name": "Wetzel County",
    "lat": 39.6006015,
    "lng": -80.6281566
  },
  {
    "fips": "55053",
    "state": "Wisconsin",
    "name": "Jackson County",
    "lat": 44.3267574,
    "lng": -90.7960178
  },
  {
    "fips": "41007",
    "state": "Oregon",
    "name": "Clatsop County",
    "lat": 46.0245092,
    "lng": -123.705014
  },
  {
    "fips": "53041",
    "state": "Washington",
    "name": "Lewis County",
    "lat": 46.5800714,
    "lng": -122.3774443
  },
  {
    "fips": "36003",
    "state": "New York",
    "name": "Allegany County",
    "lat": 42.2478532,
    "lng": -78.0261531
  },
  {
    "fips": "19031",
    "state": "Iowa",
    "name": "Cedar County",
    "lat": 41.77236,
    "lng": -91.1326105
  },
  {
    "fips": "18117",
    "state": "Indiana",
    "name": "Orange County",
    "lat": 38.5473812,
    "lng": -86.489257
  },
  {
    "fips": "13089",
    "state": "Geogia",
    "name": "DeKalb County",
    "lat": 33.7706611,
    "lng": -84.2263431
  },
  {
    "fips": "13227",
    "state": "Geogia",
    "name": "Pickens County",
    "lat": 34.4568125,
    "lng": -84.490339
  },
  {
    "fips": "30015",
    "state": "Montana",
    "name": "Chouteau County",
    "lat": 47.886837,
    "lng": -110.4361888
  },
  {
    "fips": "31017",
    "state": "Nebraska",
    "name": "Brown County",
    "lat": 42.3595618,
    "lng": -99.9239198
  },
  {
    "fips": "47013",
    "state": "Tennessee",
    "name": "Campbell County",
    "lat": 36.4015922,
    "lng": -84.1592495
  },
  {
    "fips": "37069",
    "state": "North Carolina",
    "name": "Franklin County",
    "lat": 36.0882406,
    "lng": -78.2830903
  },
  {
    "fips": "24510",
    "state": "Maryland",
    "name": "Baltimore city",
    "lat": 39.3000324,
    "lng": -76.6104761
  },
  {
    "fips": "20111",
    "state": "Kansas",
    "name": "Lyon County",
    "lat": 38.4554978,
    "lng": -96.1615888
  },
  {
    "fips": "19027",
    "state": "Iowa",
    "name": "Carroll County",
    "lat": 42.039492,
    "lng": -94.8676471
  },
  {
    "fips": "22107",
    "state": "Louisiana",
    "name": "Tensas Parish",
    "lat": 32.0014894,
    "lng": -91.342576
  },
  {
    "fips": "47123",
    "state": "Tennessee",
    "name": "Monroe County",
    "lat": 35.4478181,
    "lng": -84.249705
  },
  {
    "fips": "20075",
    "state": "Kansas",
    "name": "Hamilton County",
    "lat": 37.9952438,
    "lng": -101.7936887
  },
  {
    "fips": "19151",
    "state": "Iowa",
    "name": "Pocahontas County",
    "lat": 42.7340333,
    "lng": -94.6782789
  },
  {
    "fips": "16045",
    "state": "Idaho",
    "name": "Gem County",
    "lat": 44.0614727,
    "lng": -116.3987839
  },
  {
    "fips": "05063",
    "state": "Arkansas",
    "name": "Independence County",
    "lat": 35.7374992,
    "lng": -91.5599423
  },
  {
    "fips": "05085",
    "state": "Arkansas",
    "name": "Lonoke County",
    "lat": 34.7551137,
    "lng": -91.894132
  },
  {
    "fips": "18111",
    "state": "Indiana",
    "name": "Newton County",
    "lat": 40.9623985,
    "lng": -87.4021716
  },
  {
    "fips": "13119",
    "state": "Geogia",
    "name": "Franklin County",
    "lat": 34.3750807,
    "lng": -83.2280639
  },
  {
    "fips": "12051",
    "state": "Florida",
    "name": "Hendry County",
    "lat": 26.539967,
    "lng": -81.1521142
  },
  {
    "fips": "13265",
    "state": "Geogia",
    "name": "Taliaferro County",
    "lat": 33.559319,
    "lng": -82.8752721
  },
  {
    "fips": "48245",
    "state": "Texas",
    "name": "Jefferson County",
    "lat": 29.8539997,
    "lng": -94.1493306
  },
  {
    "fips": "30059",
    "state": "Montana",
    "name": "Meagher County",
    "lat": 46.5856996,
    "lng": -110.9217396
  },
  {
    "fips": "08067",
    "state": "Colorado",
    "name": "La Plata County",
    "lat": 37.2873673,
    "lng": -107.8397178
  },
  {
    "fips": "48027",
    "state": "Texas",
    "name": "Bell County",
    "lat": 31.0422682,
    "lng": -97.4813921
  },
  {
    "fips": "28069",
    "state": "Mississippi",
    "name": "Kemper County",
    "lat": 32.7501361,
    "lng": -88.6256306
  },
  {
    "fips": "05019",
    "state": "Arkansas",
    "name": "Clark County",
    "lat": 34.0533162,
    "lng": -93.1762085
  },
  {
    "fips": "41035",
    "state": "Oregon",
    "name": "Klamath County",
    "lat": 42.6837613,
    "lng": -121.6461682
  },
  {
    "fips": "36075",
    "state": "New York",
    "name": "Oswego County",
    "lat": 43.4614428,
    "lng": -76.209258
  },
  {
    "fips": "72105",
    "name": "Naranjito Municipio",
    "lat": 18.2899273,
    "lng": -66.2534402
  },
  {
    "fips": "01019",
    "state": "Alabama",
    "name": "Cherokee County",
    "lat": 34.0695153,
    "lng": -85.6542417
  },
  {
    "fips": "48019",
    "state": "Texas",
    "name": "Bandera County",
    "lat": 29.756389,
    "lng": -99.2482849
  },
  {
    "fips": "30087",
    "state": "Montana",
    "name": "Rosebud County",
    "lat": 46.1733598,
    "lng": -106.6664101
  },
  {
    "fips": "35059",
    "state": "New Mexico",
    "name": "Union County",
    "lat": 36.4880853,
    "lng": -103.4757229
  },
  {
    "fips": "26153",
    "state": "Michigan",
    "name": "Schoolcraft County",
    "lat": 46.0211217,
    "lng": -86.197029
  },
  {
    "fips": "36111",
    "state": "New York",
    "name": "Ulster County",
    "lat": 41.9472156,
    "lng": -74.2654583
  },
  {
    "fips": "34007",
    "state": "New Jersey",
    "name": "Camden County",
    "lat": 39.8023521,
    "lng": -74.9612508
  },
  {
    "fips": "17083",
    "state": "Illinois",
    "name": "Jersey County",
    "lat": 39.0801918,
    "lng": -90.3613647
  },
  {
    "fips": "51085",
    "state": "Virginia",
    "name": "Hanover County",
    "lat": 37.7601655,
    "lng": -77.4909916
  },
  {
    "fips": "20199",
    "state": "Kansas",
    "name": "Wallace County",
    "lat": 38.9266259,
    "lng": -101.7711031
  },
  {
    "fips": "26003",
    "state": "Michigan",
    "name": "Alger County",
    "lat": 47.0800765,
    "lng": -86.5641076
  },
  {
    "fips": "05049",
    "state": "Arkansas",
    "name": "Fulton County",
    "lat": 36.3836192,
    "lng": -91.8196636
  },
  {
    "fips": "48215",
    "state": "Texas",
    "name": "Hidalgo County",
    "lat": 26.3963839,
    "lng": -98.18099
  },
  {
    "fips": "37155",
    "state": "North Carolina",
    "name": "Robeson County",
    "lat": 34.6392096,
    "lng": -79.1008811
  },
  {
    "fips": "26123",
    "state": "Michigan",
    "name": "Newaygo County",
    "lat": 43.5627086,
    "lng": -85.7914227
  },
  {
    "fips": "41049",
    "state": "Oregon",
    "name": "Morrow County",
    "lat": 45.4254956,
    "lng": -119.6023111
  },
  {
    "fips": "27153",
    "state": "Minnesota",
    "name": "Todd County",
    "lat": 46.0665694,
    "lng": -94.9005758
  },
  {
    "fips": "05083",
    "state": "Arkansas",
    "name": "Logan County",
    "lat": 35.2186538,
    "lng": -93.7209102
  },
  {
    "fips": "37109",
    "state": "North Carolina",
    "name": "Lincoln County",
    "lat": 35.488502,
    "lng": -81.2269746
  },
  {
    "fips": "05091",
    "state": "Arkansas",
    "name": "Miller County",
    "lat": 33.3055054,
    "lng": -93.9015018
  },
  {
    "fips": "12095",
    "state": "Florida",
    "name": "Orange County",
    "lat": 28.514435,
    "lng": -81.323295
  },
  {
    "fips": "08111",
    "state": "Colorado",
    "name": "San Juan County",
    "lat": 37.7810745,
    "lng": -107.6702566
  },
  {
    "fips": "16041",
    "state": "Idaho",
    "name": "Franklin County",
    "lat": 42.1736093,
    "lng": -111.8229653
  },
  {
    "fips": "13045",
    "state": "Geogia",
    "name": "Carroll County",
    "lat": 33.5822366,
    "lng": -85.0805272
  },
  {
    "fips": "20161",
    "state": "Kansas",
    "name": "Riley County",
    "lat": 39.2912114,
    "lng": -96.7274889
  },
  {
    "fips": "48413",
    "state": "Texas",
    "name": "Schleicher County",
    "lat": 30.8962331,
    "lng": -100.5272161
  },
  {
    "fips": "51167",
    "state": "Virginia",
    "name": "Russell County",
    "lat": 36.9334198,
    "lng": -82.0959342
  },
  {
    "fips": "37027",
    "state": "North Carolina",
    "name": "Caldwell County",
    "lat": 35.9579149,
    "lng": -81.5300023
  },
  {
    "fips": "16065",
    "state": "Idaho",
    "name": "Madison County",
    "lat": 43.788614,
    "lng": -111.6569925
  },
  {
    "fips": "18173",
    "state": "Indiana",
    "name": "Warrick County",
    "lat": 38.0977282,
    "lng": -87.2720486
  },
  {
    "fips": "21001",
    "state": "Kentucky",
    "name": "Adair County",
    "lat": 37.1055589,
    "lng": -85.2813796
  },
  {
    "fips": "21077",
    "state": "Kentucky",
    "name": "Gallatin County",
    "lat": 38.7601027,
    "lng": -84.8621526
  },
  {
    "fips": "21097",
    "state": "Kentucky",
    "name": "Harrison County",
    "lat": 38.4445776,
    "lng": -84.3341313
  },
  {
    "fips": "23023",
    "state": "Maine",
    "name": "Sagadahoc County",
    "lat": 43.9166447,
    "lng": -69.844326
  },
  {
    "fips": "30097",
    "state": "Montana",
    "name": "Sweet Grass County",
    "lat": 45.8130601,
    "lng": -109.9413124
  },
  {
    "fips": "48181",
    "state": "Texas",
    "name": "Grayson County",
    "lat": 33.6245321,
    "lng": -96.6757378
  },
  {
    "fips": "42059",
    "state": "Pennsylvania",
    "name": "Greene County",
    "lat": 39.8477067,
    "lng": -80.2256552
  },
  {
    "fips": "02188",
    "state": "Alaska",
    "name": "Northwest Arctic Borough",
    "lat": 67.0050655,
    "lng": -160.0210864
  },
  {
    "fips": "20051",
    "state": "Kansas",
    "name": "Ellis County",
    "lat": 38.9145957,
    "lng": -99.3173291
  },
  {
    "fips": "01065",
    "state": "Alabama",
    "name": "Hale County",
    "lat": 32.7527958,
    "lng": -87.6230608
  },
  {
    "fips": "01105",
    "state": "Alabama",
    "name": "Perry County",
    "lat": 32.6390053,
    "lng": -87.2938269
  },
  {
    "fips": "01033",
    "state": "Alabama",
    "name": "Colbert County",
    "lat": 34.703112,
    "lng": -87.8014569
  },
  {
    "fips": "20151",
    "state": "Kansas",
    "name": "Pratt County",
    "lat": 37.6475943,
    "lng": -98.7401199
  },
  {
    "fips": "21017",
    "state": "Kentucky",
    "name": "Bourbon County",
    "lat": 38.2025623,
    "lng": -84.2098602
  },
  {
    "fips": "47149",
    "state": "Tennessee",
    "name": "Rutherford County",
    "lat": 35.8433688,
    "lng": -86.4172127
  },
  {
    "fips": "13075",
    "state": "Geogia",
    "name": "Cook County",
    "lat": 31.1525285,
    "lng": -83.4294384
  },
  {
    "fips": "20101",
    "state": "Kansas",
    "name": "Lane County",
    "lat": 38.4812863,
    "lng": -100.4661853
  },
  {
    "fips": "40059",
    "state": "Oklahoma",
    "name": "Harper County",
    "lat": 36.8003504,
    "lng": -99.6628052
  },
  {
    "fips": "17147",
    "state": "Illinois",
    "name": "Piatt County",
    "lat": 40.0090561,
    "lng": -88.5923282
  },
  {
    "fips": "48107",
    "state": "Texas",
    "name": "Crosby County",
    "lat": 33.609144,
    "lng": -101.2987099
  },
  {
    "fips": "72053",
    "name": "Fajardo Municipio",
    "lat": 18.3863776,
    "lng": -65.588454
  },
  {
    "fips": "01063",
    "state": "Alabama",
    "name": "Greene County",
    "lat": 32.8444965,
    "lng": -87.9642005
  },
  {
    "fips": "16033",
    "state": "Idaho",
    "name": "Clark County",
    "lat": 44.290218,
    "lng": -112.3546128
  },
  {
    "fips": "19109",
    "state": "Iowa",
    "name": "Kossuth County",
    "lat": 43.2124777,
    "lng": -94.213983
  },
  {
    "fips": "72151",
    "name": "Yabucoa Municipio",
    "lat": 18.0598584,
    "lng": -65.8598713
  },
  {
    "fips": "38013",
    "state": "North Dakota",
    "name": "Burke County",
    "lat": 48.7864534,
    "lng": -102.5200874
  },
  {
    "fips": "37063",
    "state": "North Carolina",
    "name": "Durham County",
    "lat": 36.0338223,
    "lng": -78.8781198
  },
  {
    "fips": "19085",
    "state": "Iowa",
    "name": "Harrison County",
    "lat": 41.6885844,
    "lng": -95.8271491
  },
  {
    "fips": "31103",
    "state": "Nebraska",
    "name": "Keya Paha County",
    "lat": 42.8754803,
    "lng": -99.7183514
  },
  {
    "fips": "19187",
    "state": "Iowa",
    "name": "Webster County",
    "lat": 42.4335786,
    "lng": -94.1758309
  },
  {
    "fips": "17151",
    "state": "Illinois",
    "name": "Pope County",
    "lat": 37.4171687,
    "lng": -88.5423737
  },
  {
    "fips": "47159",
    "state": "Tennessee",
    "name": "Smith County",
    "lat": 36.2556502,
    "lng": -85.9420777
  },
  {
    "fips": "51089",
    "state": "Virginia",
    "name": "Henry County",
    "lat": 36.6206074,
    "lng": -79.9806728
  },
  {
    "fips": "51510",
    "state": "Virginia",
    "name": "Alexandria city",
    "lat": 38.8200709,
    "lng": -77.0840628
  },
  {
    "fips": "19101",
    "state": "Iowa",
    "name": "Jefferson County",
    "lat": 41.0068799,
    "lng": -91.9671367
  },
  {
    "fips": "30049",
    "state": "Montana",
    "name": "Lewis and Clark County",
    "lat": 47.1220341,
    "lng": -112.3829244
  },
  {
    "fips": "49013",
    "state": "Utah",
    "name": "Duchesne County",
    "lat": 40.2896487,
    "lng": -110.4298303
  },
  {
    "fips": "40003",
    "state": "Oklahoma",
    "name": "Alfalfa County",
    "lat": 36.7297032,
    "lng": -98.3234449
  },
  {
    "fips": "48119",
    "state": "Texas",
    "name": "Delta County",
    "lat": 33.3859329,
    "lng": -95.6733504
  },
  {
    "fips": "47169",
    "state": "Tennessee",
    "name": "Trousdale County",
    "lat": 36.3930297,
    "lng": -86.1566909
  },
  {
    "fips": "21193",
    "state": "Kentucky",
    "name": "Perry County",
    "lat": 37.2412822,
    "lng": -83.2177723
  },
  {
    "fips": "46039",
    "state": "South Dakota",
    "name": "Deuel County",
    "lat": 44.7562899,
    "lng": -96.6902393
  },
  {
    "fips": "41029",
    "state": "Oregon",
    "name": "Jackson County",
    "lat": 42.4116284,
    "lng": -122.6756846
  },
  {
    "fips": "72067",
    "name": "Hormigueros Municipio",
    "lat": 18.1346949,
    "lng": -67.1161994
  },
  {
    "fips": "48507",
    "state": "Texas",
    "name": "Zavala County",
    "lat": 28.8646523,
    "lng": -99.7598304
  },
  {
    "fips": "31007",
    "state": "Nebraska",
    "name": "Banner County",
    "lat": 41.5397495,
    "lng": -103.7262626
  },
  {
    "fips": "19121",
    "state": "Iowa",
    "name": "Madison County",
    "lat": 41.3306216,
    "lng": -94.0151842
  },
  {
    "fips": "12011",
    "state": "Florida",
    "name": "Broward County",
    "lat": 26.1935353,
    "lng": -80.4766834
  },
  {
    "fips": "13279",
    "state": "Geogia",
    "name": "Toombs County",
    "lat": 32.1266975,
    "lng": -82.3320708
  },
  {
    "fips": "26151",
    "state": "Michigan",
    "name": "Sanilac County",
    "lat": 43.4491547,
    "lng": -82.6428148
  },
  {
    "fips": "48397",
    "state": "Texas",
    "name": "Rockwall County",
    "lat": 32.8986766,
    "lng": -96.4044017
  },
  {
    "fips": "26163",
    "state": "Michigan",
    "name": "Wayne County",
    "lat": 42.2846636,
    "lng": -83.2619533
  },
  {
    "fips": "27105",
    "state": "Minnesota",
    "name": "Nobles County",
    "lat": 43.6776863,
    "lng": -95.7631323
  },
  {
    "fips": "27001",
    "state": "Minnesota",
    "name": "Aitkin County",
    "lat": 46.6024464,
    "lng": -93.41976
  },
  {
    "fips": "38071",
    "state": "North Dakota",
    "name": "Ramsey County",
    "lat": 48.2661631,
    "lng": -98.739031
  },
  {
    "fips": "37145",
    "state": "North Carolina",
    "name": "Person County",
    "lat": 36.3863362,
    "lng": -78.9656441
  },
  {
    "fips": "20195",
    "state": "Kansas",
    "name": "Trego County",
    "lat": 38.9213022,
    "lng": -99.865423
  },
  {
    "fips": "28151",
    "state": "Mississippi",
    "name": "Washington County",
    "lat": 33.273174,
    "lng": -90.9444459
  },
  {
    "fips": "48133",
    "state": "Texas",
    "name": "Eastland County",
    "lat": 32.3246454,
    "lng": -98.8365596
  },
  {
    "fips": "28055",
    "state": "Mississippi",
    "name": "Issaquena County",
    "lat": 32.7555393,
    "lng": -91.0035351
  },
  {
    "fips": "48123",
    "state": "Texas",
    "name": "DeWitt County",
    "lat": 29.0823457,
    "lng": -97.3616543
  },
  {
    "fips": "48005",
    "state": "Texas",
    "name": "Angelina County",
    "lat": 31.2519514,
    "lng": -94.6110558
  },
  {
    "fips": "45081",
    "state": "South Carolina",
    "name": "Saluda County",
    "lat": 34.0052784,
    "lng": -81.7279033
  },
  {
    "fips": "29125",
    "state": "Missouri",
    "name": "Maries County",
    "lat": 38.1626154,
    "lng": -91.923601
  },
  {
    "fips": "05001",
    "state": "Arkansas",
    "name": "Arkansas County",
    "lat": 34.2895697,
    "lng": -91.3765466
  },
  {
    "fips": "29109",
    "state": "Missouri",
    "name": "Lawrence County",
    "lat": 37.1065898,
    "lng": -93.8305507
  },
  {
    "fips": "51540",
    "state": "Virginia",
    "name": "Charlottesville city",
    "lat": 38.0376579,
    "lng": -78.4853806
  },
  {
    "fips": "17011",
    "state": "Illinois",
    "name": "Bureau County",
    "lat": 41.4013043,
    "lng": -89.5283772
  },
  {
    "fips": "39145",
    "state": "Ohio",
    "name": "Scioto County",
    "lat": 38.8148886,
    "lng": -82.998675
  },
  {
    "fips": "37115",
    "state": "North Carolina",
    "name": "Madison County",
    "lat": 35.8640782,
    "lng": -82.7127314
  },
  {
    "fips": "16053",
    "state": "Idaho",
    "name": "Jerome County",
    "lat": 42.6913953,
    "lng": -114.2620858
  },
  {
    "fips": "39163",
    "state": "Ohio",
    "name": "Vinton County",
    "lat": 39.2520144,
    "lng": -82.485961
  },
  {
    "fips": "48309",
    "state": "Texas",
    "name": "McLennan County",
    "lat": 31.549493,
    "lng": -97.2014721
  },
  {
    "fips": "16037",
    "state": "Idaho",
    "name": "Custer County",
    "lat": 44.273351,
    "lng": -114.2522675
  },
  {
    "fips": "19089",
    "state": "Iowa",
    "name": "Howard County",
    "lat": 43.3653125,
    "lng": -92.3219084
  },
  {
    "fips": "12099",
    "state": "Florida",
    "name": "Palm Beach County",
    "lat": 26.649124,
    "lng": -80.4483739
  },
  {
    "fips": "13181",
    "state": "Geogia",
    "name": "Lincoln County",
    "lat": 33.7921507,
    "lng": -82.4482992
  },
  {
    "fips": "01013",
    "state": "Alabama",
    "name": "Butler County",
    "lat": 31.751667,
    "lng": -86.6819689
  },
  {
    "fips": "47165",
    "state": "Tennessee",
    "name": "Sumner County",
    "lat": 36.473443,
    "lng": -86.4597975
  },
  {
    "fips": "51097",
    "state": "Virginia",
    "name": "King and Queen County",
    "lat": 37.7143718,
    "lng": -76.9018551
  },
  {
    "fips": "05015",
    "state": "Arkansas",
    "name": "Carroll County",
    "lat": 36.3377742,
    "lng": -93.5416633
  },
  {
    "fips": "51820",
    "state": "Virginia",
    "name": "Waynesboro city",
    "lat": 38.0671571,
    "lng": -78.9014197
  },
  {
    "fips": "02220",
    "state": "Alaska",
    "name": "Sitka City and Borough",
    "lat": 57.1932044,
    "lng": -135.3673965
  },
  {
    "fips": "41051",
    "state": "Oregon",
    "name": "Multnomah County",
    "lat": 45.5476932,
    "lng": -122.4171728
  },
  {
    "fips": "47061",
    "state": "Tennessee",
    "name": "Grundy County",
    "lat": 35.393356,
    "lng": -85.7103893
  },
  {
    "fips": "27057",
    "state": "Minnesota",
    "name": "Hubbard County",
    "lat": 47.0955506,
    "lng": -94.9132898
  },
  {
    "fips": "38081",
    "state": "North Dakota",
    "name": "Sargent County",
    "lat": 46.1082063,
    "lng": -97.6300298
  },
  {
    "fips": "36089",
    "state": "New York",
    "name": "St. Lawrence County",
    "lat": 44.4881125,
    "lng": -75.074311
  },
  {
    "fips": "29179",
    "state": "Missouri",
    "name": "Reynolds County",
    "lat": 37.3608568,
    "lng": -90.9695158
  },
  {
    "fips": "06067",
    "state": "California",
    "name": "Sacramento County",
    "lat": 38.4500114,
    "lng": -121.3404409
  },
  {
    "fips": "39125",
    "state": "Ohio",
    "name": "Paulding County",
    "lat": 41.1189196,
    "lng": -84.5822551
  },
  {
    "fips": "18179",
    "state": "Indiana",
    "name": "Wells County",
    "lat": 40.7352727,
    "lng": -85.2129742
  },
  {
    "fips": "51063",
    "state": "Virginia",
    "name": "Floyd County",
    "lat": 36.9314381,
    "lng": -80.3503087
  },
  {
    "fips": "06083",
    "state": "California",
    "name": "Santa Barbara County",
    "lat": 34.5370572,
    "lng": -120.0399729
  },
  {
    "fips": "54005",
    "state": "West Virginia",
    "name": "Boone County",
    "lat": 38.0228142,
    "lng": -81.713539
  },
  {
    "fips": "28009",
    "state": "Mississippi",
    "name": "Benton County",
    "lat": 34.8105184,
    "lng": -89.2002848
  },
  {
    "fips": "21055",
    "state": "Kentucky",
    "name": "Crittenden County",
    "lat": 37.3581494,
    "lng": -88.1050103
  },
  {
    "fips": "19147",
    "state": "Iowa",
    "name": "Palo Alto County",
    "lat": 43.0753374,
    "lng": -94.6690546
  },
  {
    "fips": "19159",
    "state": "Iowa",
    "name": "Ringgold County",
    "lat": 40.7353342,
    "lng": -94.2442514
  },
  {
    "fips": "37151",
    "state": "North Carolina",
    "name": "Randolph County",
    "lat": 35.7099148,
    "lng": -79.8062153
  },
  {
    "fips": "24015",
    "state": "Maryland",
    "name": "Cecil County",
    "lat": 39.5623537,
    "lng": -75.9415852
  },
  {
    "fips": "18171",
    "state": "Indiana",
    "name": "Warren County",
    "lat": 40.3526584,
    "lng": -87.3758466
  },
  {
    "fips": "31077",
    "state": "Nebraska",
    "name": "Greeley County",
    "lat": 41.5675715,
    "lng": -98.5305655
  },
  {
    "fips": "31095",
    "state": "Nebraska",
    "name": "Jefferson County",
    "lat": 40.1757356,
    "lng": -97.1431027
  },
  {
    "fips": "31151",
    "state": "Nebraska",
    "name": "Saline County",
    "lat": 40.5168024,
    "lng": -97.131755
  },
  {
    "fips": "21119",
    "state": "Kentucky",
    "name": "Knott County",
    "lat": 37.3597236,
    "lng": -82.9457242
  },
  {
    "fips": "19045",
    "state": "Iowa",
    "name": "Clinton County",
    "lat": 41.8980732,
    "lng": -90.5342431
  },
  {
    "fips": "27063",
    "state": "Minnesota",
    "name": "Jackson County",
    "lat": 43.671111,
    "lng": -95.1497314
  },
  {
    "fips": "27039",
    "state": "Minnesota",
    "name": "Dodge County",
    "lat": 44.0207056,
    "lng": -92.869353
  },
  {
    "fips": "27047",
    "state": "Minnesota",
    "name": "Freeborn County",
    "lat": 43.6742019,
    "lng": -93.3502887
  },
  {
    "fips": "06009",
    "state": "California",
    "name": "Calaveras County",
    "lat": 38.1838998,
    "lng": -120.5614422
  },
  {
    "fips": "25001",
    "state": "Massachusetts",
    "name": "Barnstable County",
    "lat": 41.7988188,
    "lng": -70.2110827
  },
  {
    "fips": "51119",
    "state": "Virginia",
    "name": "Middlesex County",
    "lat": 37.6069753,
    "lng": -76.5280819
  },
  {
    "fips": "42065",
    "state": "Pennsylvania",
    "name": "Jefferson County",
    "lat": 41.1380282,
    "lng": -79.012419
  },
  {
    "fips": "18089",
    "state": "Indiana",
    "name": "Lake County",
    "lat": 41.472247,
    "lng": -87.3743368
  },
  {
    "fips": "47003",
    "state": "Tennessee",
    "name": "Bedford County",
    "lat": 35.5136604,
    "lng": -86.4582939
  },
  {
    "fips": "47027",
    "state": "Tennessee",
    "name": "Clay County",
    "lat": 36.5457881,
    "lng": -85.545816
  },
  {
    "fips": "17029",
    "state": "Illinois",
    "name": "Coles County",
    "lat": 39.5136797,
    "lng": -88.220782
  },
  {
    "fips": "47097",
    "state": "Tennessee",
    "name": "Lauderdale County",
    "lat": 35.7629507,
    "lng": -89.6277318
  },
  {
    "fips": "41001",
    "state": "Oregon",
    "name": "Baker County",
    "lat": 44.7034268,
    "lng": -117.6919334
  },
  {
    "fips": "36097",
    "state": "New York",
    "name": "Schuyler County",
    "lat": 42.4197755,
    "lng": -76.938603
  },
  {
    "fips": "26159",
    "state": "Michigan",
    "name": "Van Buren County",
    "lat": 42.2821497,
    "lng": -86.3060762
  },
  {
    "fips": "17131",
    "state": "Illinois",
    "name": "Mercer County",
    "lat": 41.2047906,
    "lng": -90.7414333
  },
  {
    "fips": "21127",
    "state": "Kentucky",
    "name": "Lawrence County",
    "lat": 38.0744569,
    "lng": -82.7383015
  },
  {
    "fips": "21175",
    "state": "Kentucky",
    "name": "Morgan County",
    "lat": 37.9229402,
    "lng": -83.2589444
  },
  {
    "fips": "21177",
    "state": "Kentucky",
    "name": "Muhlenberg County",
    "lat": 37.2138159,
    "lng": -87.1340919
  },
  {
    "fips": "17049",
    "state": "Illinois",
    "name": "Effingham County",
    "lat": 39.0479445,
    "lng": -88.5928488
  },
  {
    "fips": "47105",
    "state": "Tennessee",
    "name": "Loudon County",
    "lat": 35.73745,
    "lng": -84.316204
  },
  {
    "fips": "46025",
    "state": "South Dakota",
    "name": "Clark County",
    "lat": 44.8552107,
    "lng": -97.7249124
  },
  {
    "fips": "15003",
    "state": "Hawaii",
    "name": "Honolulu County",
    "lat": 21.4613654,
    "lng": -158.201974
  },
  {
    "fips": "12041",
    "state": "Florida",
    "name": "Gilchrist County",
    "lat": 29.7234556,
    "lng": -82.7958011
  },
  {
    "fips": "18157",
    "state": "Indiana",
    "name": "Tippecanoe County",
    "lat": 40.3891303,
    "lng": -86.8935554
  },
  {
    "fips": "42109",
    "state": "Pennsylvania",
    "name": "Snyder County",
    "lat": 40.7554068,
    "lng": -77.0729288
  },
  {
    "fips": "48277",
    "state": "Texas",
    "name": "Lamar County",
    "lat": 33.6672628,
    "lng": -95.5703477
  },
  {
    "fips": "12086",
    "state": "Florida",
    "name": "Miami-Dade County",
    "lat": 25.6105796,
    "lng": -80.4991365
  },
  {
    "fips": "31057",
    "state": "Nebraska",
    "name": "Dundy County",
    "lat": 40.180165,
    "lng": -101.6811327
  },
  {
    "fips": "48289",
    "state": "Texas",
    "name": "Leon County",
    "lat": 31.3004926,
    "lng": -95.9956219
  },
  {
    "fips": "08097",
    "state": "Colorado",
    "name": "Pitkin County",
    "lat": 39.2173323,
    "lng": -106.9157831
  },
  {
    "fips": "38035",
    "state": "North Dakota",
    "name": "Grand Forks County",
    "lat": 47.9260026,
    "lng": -97.450851
  },
  {
    "fips": "18091",
    "state": "Indiana",
    "name": "LaPorte County",
    "lat": 41.5490129,
    "lng": -86.7447386
  },
  {
    "fips": "18057",
    "state": "Indiana",
    "name": "Hamilton County",
    "lat": 40.0536465,
    "lng": -86.0217262
  },
  {
    "fips": "51595",
    "state": "Virginia",
    "name": "Emporia city",
    "lat": 36.696182,
    "lng": -77.5359753
  },
  {
    "fips": "40081",
    "state": "Oklahoma",
    "name": "Lincoln County",
    "lat": 35.7031175,
    "lng": -96.8813917
  },
  {
    "fips": "20071",
    "state": "Kansas",
    "name": "Greeley County",
    "lat": 38.4804041,
    "lng": -101.8059697
  },
  {
    "fips": "13145",
    "state": "Geogia",
    "name": "Harris County",
    "lat": 32.7315494,
    "lng": -84.912432
  },
  {
    "fips": "13251",
    "state": "Geogia",
    "name": "Screven County",
    "lat": 32.7447512,
    "lng": -81.6175849
  },
  {
    "fips": "72127",
    "name": "San Juan Municipio",
    "lat": 18.4223633,
    "lng": -66.0680935
  },
  {
    "fips": "48433",
    "state": "Texas",
    "name": "Stonewall County",
    "lat": 33.1795797,
    "lng": -100.2538069
  },
  {
    "fips": "39069",
    "state": "Ohio",
    "name": "Henry County",
    "lat": 41.3315843,
    "lng": -84.0688996
  },
  {
    "fips": "33009",
    "state": "New Hampshire",
    "name": "Grafton County",
    "lat": 43.9264976,
    "lng": -71.8423368
  },
  {
    "fips": "29145",
    "state": "Missouri",
    "name": "Newton County",
    "lat": 36.9083639,
    "lng": -94.3350211
  },
  {
    "fips": "18129",
    "state": "Indiana",
    "name": "Posey County",
    "lat": 38.0276138,
    "lng": -87.8686526
  },
  {
    "fips": "48311",
    "state": "Texas",
    "name": "McMullen County",
    "lat": 28.384922,
    "lng": -98.5788529
  },
  {
    "fips": "17035",
    "state": "Illinois",
    "name": "Cumberland County",
    "lat": 39.273121,
    "lng": -88.2406193
  },
  {
    "fips": "13297",
    "state": "Geogia",
    "name": "Walton County",
    "lat": 33.7838866,
    "lng": -83.731829
  },
  {
    "fips": "27121",
    "state": "Minnesota",
    "name": "Pope County",
    "lat": 45.5896228,
    "lng": -95.4467052
  },
  {
    "fips": "51157",
    "state": "Virginia",
    "name": "Rappahannock County",
    "lat": 38.6845215,
    "lng": -78.1688241
  },
  {
    "fips": "51009",
    "state": "Virginia",
    "name": "Amherst County",
    "lat": 37.6286103,
    "lng": -79.1542813
  },
  {
    "fips": "06111",
    "state": "California",
    "name": "Ventura County",
    "lat": 34.3587415,
    "lng": -119.1331432
  },
  {
    "fips": "17033",
    "state": "Illinois",
    "name": "Crawford County",
    "lat": 39.0027685,
    "lng": -87.7606208
  },
  {
    "fips": "08093",
    "state": "Colorado",
    "name": "Park County",
    "lat": 39.1189141,
    "lng": -105.7176479
  },
  {
    "fips": "06037",
    "state": "California",
    "name": "Los Angeles County",
    "lat": 34.1963983,
    "lng": -118.2618616
  },
  {
    "fips": "04027",
    "state": "Arizona",
    "name": "Yuma County",
    "lat": 32.7739424,
    "lng": -113.910905
  },
  {
    "fips": "13129",
    "state": "Geogia",
    "name": "Gordon County",
    "lat": 34.5096669,
    "lng": -84.8738622
  },
  {
    "fips": "19025",
    "state": "Iowa",
    "name": "Calhoun County",
    "lat": 42.3861699,
    "lng": -94.6436829
  },
  {
    "fips": "12055",
    "state": "Florida",
    "name": "Highlands County",
    "lat": 27.3426272,
    "lng": -81.3409213
  },
  {
    "fips": "51580",
    "state": "Virginia",
    "name": "Covington city",
    "lat": 37.7781426,
    "lng": -79.986039
  },
  {
    "fips": "50017",
    "state": "Vermont",
    "name": "Orange County",
    "lat": 44.0033924,
    "lng": -72.3696871
  },
  {
    "fips": "20113",
    "state": "Kansas",
    "name": "McPherson County",
    "lat": 38.395812,
    "lng": -97.6474893
  },
  {
    "fips": "04021",
    "state": "Arizona",
    "name": "Pinal County",
    "lat": 32.9190383,
    "lng": -111.3670054
  },
  {
    "fips": "39051",
    "state": "Ohio",
    "name": "Fulton County",
    "lat": 41.5972639,
    "lng": -84.1242667
  },
  {
    "fips": "08003",
    "state": "Colorado",
    "name": "Alamosa County",
    "lat": 37.5684423,
    "lng": -105.7880414
  },
  {
    "fips": "12017",
    "state": "Florida",
    "name": "Citrus County",
    "lat": 28.8436402,
    "lng": -82.5248099
  },
  {
    "fips": "72049",
    "name": "Culebra Municipio",
    "lat": 18.3265989,
    "lng": -65.30772
  },
  {
    "fips": "72051",
    "name": "Dorado Municipio",
    "lat": 18.4726608,
    "lng": -66.2595854
  },
  {
    "fips": "47041",
    "state": "Tennessee",
    "name": "DeKalb County",
    "lat": 35.9864712,
    "lng": -85.8349139
  },
  {
    "fips": "42031",
    "state": "Pennsylvania",
    "name": "Clarion County",
    "lat": 41.1981594,
    "lng": -79.4203691
  },
  {
    "fips": "46097",
    "state": "South Dakota",
    "name": "Miner County",
    "lat": 44.0215411,
    "lng": -97.608122
  },
  {
    "fips": "46073",
    "state": "South Dakota",
    "name": "Jerauld County",
    "lat": 44.0634099,
    "lng": -98.6231702
  },
  {
    "fips": "18031",
    "state": "Indiana",
    "name": "Decatur County",
    "lat": 39.3059799,
    "lng": -85.499831
  },
  {
    "fips": "18037",
    "state": "Indiana",
    "name": "Dubois County",
    "lat": 38.3733441,
    "lng": -86.8733845
  },
  {
    "fips": "51057",
    "state": "Virginia",
    "name": "Essex County",
    "lat": 37.9394802,
    "lng": -76.9418713
  },
  {
    "fips": "45089",
    "state": "South Carolina",
    "name": "Williamsburg County",
    "lat": 33.6264629,
    "lng": -79.7164752
  },
  {
    "fips": "36031",
    "state": "New York",
    "name": "Essex County",
    "lat": 44.1096005,
    "lng": -73.7784307
  },
  {
    "fips": "19195",
    "state": "Iowa",
    "name": "Worth County",
    "lat": 43.373491,
    "lng": -93.2485332
  },
  {
    "fips": "51027",
    "state": "Virginia",
    "name": "Buchanan County",
    "lat": 37.2681198,
    "lng": -82.0381508
  },
  {
    "fips": "51005",
    "state": "Virginia",
    "name": "Alleghany County",
    "lat": 37.7879048,
    "lng": -80.008669
  },
  {
    "fips": "28087",
    "state": "Mississippi",
    "name": "Lowndes County",
    "lat": 33.4714237,
    "lng": -88.4397227
  },
  {
    "fips": "18143",
    "state": "Indiana",
    "name": "Scott County",
    "lat": 38.6794309,
    "lng": -85.7518981
  },
  {
    "fips": "08099",
    "state": "Colorado",
    "name": "Prowers County",
    "lat": 37.9581814,
    "lng": -102.3921613
  },
  {
    "fips": "48435",
    "state": "Texas",
    "name": "Sutton County",
    "lat": 30.5176801,
    "lng": -100.5052697
  },
  {
    "fips": "72121",
    "name": "Sabana Grande Municipio",
    "lat": 18.0830004,
    "lng": -66.9433357
  },
  {
    "fips": "40101",
    "state": "Oklahoma",
    "name": "Muskogee County",
    "lat": 35.6175506,
    "lng": -95.3839106
  },
  {
    "fips": "29043",
    "state": "Missouri",
    "name": "Christian County",
    "lat": 36.9697388,
    "lng": -93.1876139
  },
  {
    "fips": "72039",
    "name": "Ciales Municipio",
    "lat": 18.2959127,
    "lng": -66.5155884
  },
  {
    "fips": "28073",
    "state": "Mississippi",
    "name": "Lamar County",
    "lat": 31.1975865,
    "lng": -89.5063691
  },
  {
    "fips": "18137",
    "state": "Indiana",
    "name": "Ripley County",
    "lat": 39.1002301,
    "lng": -85.2605409
  },
  {
    "fips": "38057",
    "state": "North Dakota",
    "name": "Mercer County",
    "lat": 47.3071473,
    "lng": -101.8333279
  },
  {
    "fips": "13147",
    "state": "Geogia",
    "name": "Hart County",
    "lat": 34.3487328,
    "lng": -82.96329
  },
  {
    "fips": "22049",
    "state": "Louisiana",
    "name": "Jackson Parish",
    "lat": 32.3042901,
    "lng": -92.5616997
  },
  {
    "fips": "51133",
    "state": "Virginia",
    "name": "Northumberland County",
    "lat": 37.8569736,
    "lng": -76.3796872
  },
  {
    "fips": "48157",
    "state": "Texas",
    "name": "Fort Bend County",
    "lat": 29.5266017,
    "lng": -95.7710149
  },
  {
    "fips": "55047",
    "state": "Wisconsin",
    "name": "Green Lake County",
    "lat": 43.7614097,
    "lng": -88.9872277
  },
  {
    "fips": "30073",
    "state": "Montana",
    "name": "Pondera County",
    "lat": 48.2303121,
    "lng": -112.219928
  },
  {
    "fips": "55127",
    "state": "Wisconsin",
    "name": "Walworth County",
    "lat": 42.6681095,
    "lng": -88.5417306
  },
  {
    "fips": "32021",
    "state": "Nevada",
    "name": "Mineral County",
    "lat": 38.516647,
    "lng": -118.4162794
  },
  {
    "fips": "17057",
    "state": "Illinois",
    "name": "Fulton County",
    "lat": 40.4652401,
    "lng": -90.2022689
  },
  {
    "fips": "36103",
    "state": "New York",
    "name": "Suffolk County",
    "lat": 40.943554,
    "lng": -72.6922184
  },
  {
    "fips": "18161",
    "state": "Indiana",
    "name": "Union County",
    "lat": 39.6231109,
    "lng": -84.9251523
  },
  {
    "fips": "29119",
    "state": "Missouri",
    "name": "McDonald County",
    "lat": 36.630218,
    "lng": -94.3439556
  },
  {
    "fips": "31157",
    "state": "Nebraska",
    "name": "Scotts Bluff County",
    "lat": 41.8503306,
    "lng": -103.7015494
  },
  {
    "fips": "35047",
    "state": "New Mexico",
    "name": "San Miguel County",
    "lat": 35.4768585,
    "lng": -104.8035189
  },
  {
    "fips": "01081",
    "state": "Alabama",
    "name": "Lee County",
    "lat": 32.6040644,
    "lng": -85.3530477
  },
  {
    "fips": "48367",
    "state": "Texas",
    "name": "Parker County",
    "lat": 32.7770964,
    "lng": -97.8059049
  },
  {
    "fips": "38021",
    "state": "North Dakota",
    "name": "Dickey County",
    "lat": 46.1077559,
    "lng": -98.4965182
  },
  {
    "fips": "38003",
    "state": "North Dakota",
    "name": "Barnes County",
    "lat": 46.94255,
    "lng": -98.0701946
  },
  {
    "fips": "27143",
    "state": "Minnesota",
    "name": "Sibley County",
    "lat": 44.5757343,
    "lng": -94.2301232
  },
  {
    "fips": "13293",
    "state": "Geogia",
    "name": "Upson County",
    "lat": 32.8818366,
    "lng": -84.292281
  },
  {
    "fips": "06097",
    "state": "California",
    "name": "Sonoma County",
    "lat": 38.5251824,
    "lng": -122.9261095
  },
  {
    "fips": "26033",
    "state": "Michigan",
    "name": "Chippewa County",
    "lat": 46.3218192,
    "lng": -84.5206297
  },
  {
    "fips": "16019",
    "state": "Idaho",
    "name": "Bonneville County",
    "lat": 43.3951708,
    "lng": -111.6218783
  },
  {
    "fips": "13013",
    "state": "Geogia",
    "name": "Barrow County",
    "lat": 33.9920094,
    "lng": -83.7123025
  },
  {
    "fips": "13183",
    "state": "Geogia",
    "name": "Long County",
    "lat": 31.7495633,
    "lng": -81.7428697
  },
  {
    "fips": "48271",
    "state": "Texas",
    "name": "Kinney County",
    "lat": 29.3470865,
    "lng": -100.4177003
  },
  {
    "fips": "40115",
    "state": "Oklahoma",
    "name": "Ottawa County",
    "lat": 36.8357635,
    "lng": -94.8026814
  },
  {
    "fips": "42033",
    "state": "Pennsylvania",
    "name": "Clearfield County",
    "lat": 41.0002489,
    "lng": -78.473749
  },
  {
    "fips": "26037",
    "state": "Michigan",
    "name": "Clinton County",
    "lat": 42.950455,
    "lng": -84.5916949
  },
  {
    "fips": "72133",
    "name": "Santa Isabel Municipio",
    "lat": 17.9529217,
    "lng": -66.3875885
  },
  {
    "fips": "17135",
    "state": "Illinois",
    "name": "Montgomery County",
    "lat": 39.2280932,
    "lng": -89.4780041
  },
  {
    "fips": "28003",
    "state": "Mississippi",
    "name": "Alcorn County",
    "lat": 34.8865689,
    "lng": -88.5811091
  },
  {
    "fips": "28071",
    "state": "Mississippi",
    "name": "Lafayette County",
    "lat": 34.3492982,
    "lng": -89.4859026
  },
  {
    "fips": "22043",
    "state": "Louisiana",
    "name": "Grant Parish",
    "lat": 31.5977873,
    "lng": -92.5617156
  },
  {
    "fips": "29005",
    "state": "Missouri",
    "name": "Atchison County",
    "lat": 40.431846,
    "lng": -95.4375546
  },
  {
    "fips": "17115",
    "state": "Illinois",
    "name": "Macon County",
    "lat": 39.8602372,
    "lng": -88.9615288
  },
  {
    "fips": "26149",
    "state": "Michigan",
    "name": "St. Joseph County",
    "lat": 41.9114878,
    "lng": -85.5228703
  },
  {
    "fips": "17055",
    "state": "Illinois",
    "name": "Franklin County",
    "lat": 37.9918483,
    "lng": -88.9262457
  },
  {
    "fips": "30033",
    "state": "Montana",
    "name": "Garfield County",
    "lat": 47.280033,
    "lng": -106.9867061
  },
  {
    "fips": "31001",
    "state": "Nebraska",
    "name": "Adams County",
    "lat": 40.5206322,
    "lng": -98.5000441
  },
  {
    "fips": "27109",
    "state": "Minnesota",
    "name": "Olmsted County",
    "lat": 44.0034295,
    "lng": -92.4067216
  },
  {
    "fips": "34039",
    "state": "New Jersey",
    "name": "Union County",
    "lat": 40.6598707,
    "lng": -74.3086957
  },
  {
    "fips": "72139",
    "name": "Trujillo Alto Municipio",
    "lat": 18.3353864,
    "lng": -66.0037872
  },
  {
    "fips": "01097",
    "state": "Alabama",
    "name": "Mobile County",
    "lat": 30.6845725,
    "lng": -88.1965682
  },
  {
    "fips": "46087",
    "state": "South Dakota",
    "name": "McCook County",
    "lat": 43.6789244,
    "lng": -97.3620356
  },
  {
    "fips": "01057",
    "state": "Alabama",
    "name": "Fayette County",
    "lat": 33.7161568,
    "lng": -87.7642923
  },
  {
    "fips": "01017",
    "state": "Alabama",
    "name": "Chambers County",
    "lat": 32.9155039,
    "lng": -85.3940321
  },
  {
    "fips": "37131",
    "state": "North Carolina",
    "name": "Northampton County",
    "lat": 36.4217739,
    "lng": -77.3983518
  },
  {
    "fips": "08081",
    "state": "Colorado",
    "name": "Moffat County",
    "lat": 40.6163576,
    "lng": -108.2110988
  },
  {
    "fips": "21087",
    "state": "Kentucky",
    "name": "Green County",
    "lat": 37.2696366,
    "lng": -85.5614029
  },
  {
    "fips": "18047",
    "state": "Indiana",
    "name": "Franklin County",
    "lat": 39.409762,
    "lng": -85.0669641
  },
  {
    "fips": "37013",
    "state": "North Carolina",
    "name": "Beaufort County",
    "lat": 35.4823128,
    "lng": -76.8420144
  },
  {
    "fips": "72073",
    "name": "Jayuya Municipio",
    "lat": 18.2111522,
    "lng": -66.58687
  },
  {
    "fips": "38015",
    "state": "North Dakota",
    "name": "Burleigh County",
    "lat": 46.9718426,
    "lng": -100.4620005
  },
  {
    "fips": "37159",
    "state": "North Carolina",
    "name": "Rowan County",
    "lat": 35.6413294,
    "lng": -80.5217216
  },
  {
    "fips": "26071",
    "state": "Michigan",
    "name": "Iron County",
    "lat": 46.1702542,
    "lng": -88.5405261
  },
  {
    "fips": "27067",
    "state": "Minnesota",
    "name": "Kandiyohi County",
    "lat": 45.1527137,
    "lng": -95.0049812
  },
  {
    "fips": "21237",
    "state": "Kentucky",
    "name": "Wolfe County",
    "lat": 37.7437739,
    "lng": -83.4950678
  },
  {
    "fips": "48149",
    "state": "Texas",
    "name": "Fayette County",
    "lat": 29.8778861,
    "lng": -96.9212309
  },
  {
    "fips": "46081",
    "state": "South Dakota",
    "name": "Lawrence County",
    "lat": 44.3485831,
    "lng": -103.8058171
  },
  {
    "fips": "23029",
    "state": "Maine",
    "name": "Washington County",
    "lat": 44.9670088,
    "lng": -67.6093542
  },
  {
    "fips": "48045",
    "state": "Texas",
    "name": "Briscoe County",
    "lat": 34.5251725,
    "lng": -101.205893
  },
  {
    "fips": "26131",
    "state": "Michigan",
    "name": "Ontonagon County",
    "lat": 47.2166041,
    "lng": -89.5004614
  },
  {
    "fips": "28015",
    "state": "Mississippi",
    "name": "Carroll County",
    "lat": 33.4407948,
    "lng": -89.918887
  },
  {
    "fips": "41003",
    "state": "Oregon",
    "name": "Benton County",
    "lat": 44.4938816,
    "lng": -123.4246641
  },
  {
    "fips": "27133",
    "state": "Minnesota",
    "name": "Rock County",
    "lat": 43.6695866,
    "lng": -96.2632376
  },
  {
    "fips": "42063",
    "state": "Pennsylvania",
    "name": "Indiana County",
    "lat": 40.6514319,
    "lng": -79.0875451
  },
  {
    "fips": "22061",
    "state": "Louisiana",
    "name": "Lincoln Parish",
    "lat": 32.6018231,
    "lng": -92.6623026
  },
  {
    "fips": "42099",
    "state": "Pennsylvania",
    "name": "Perry County",
    "lat": 40.3977795,
    "lng": -77.2663284
  },
  {
    "fips": "46137",
    "state": "South Dakota",
    "name": "Ziebach County",
    "lat": 44.9897638,
    "lng": -101.6608274
  },
  {
    "fips": "48203",
    "state": "Texas",
    "name": "Harrison County",
    "lat": 32.5479914,
    "lng": -94.3744344
  },
  {
    "fips": "26013",
    "state": "Michigan",
    "name": "Baraga County",
    "lat": 46.6958592,
    "lng": -88.3618101
  },
  {
    "fips": "40131",
    "state": "Oklahoma",
    "name": "Rogers County",
    "lat": 36.3777941,
    "lng": -95.6013835
  },
  {
    "fips": "29019",
    "state": "Missouri",
    "name": "Boone County",
    "lat": 38.9898614,
    "lng": -92.3102022
  },
  {
    "fips": "72097",
    "name": "Mayagez Municipio",
    "lat": 18.0838502,
    "lng": -67.886337
  },
  {
    "fips": "40015",
    "state": "Oklahoma",
    "name": "Caddo County",
    "lat": 35.1679202,
    "lng": -98.3810447
  },
  {
    "fips": "08059",
    "state": "Colorado",
    "name": "Jefferson County",
    "lat": 39.5795106,
    "lng": -105.2454623
  },
  {
    "fips": "54011",
    "state": "West Virginia",
    "name": "Cabell County",
    "lat": 38.4195778,
    "lng": -82.2433966
  },
  {
    "fips": "48383",
    "state": "Texas",
    "name": "Reagan County",
    "lat": 31.3751911,
    "lng": -101.5143954
  },
  {
    "fips": "05141",
    "state": "Arkansas",
    "name": "Van Buren County",
    "lat": 35.5829532,
    "lng": -92.5159757
  },
  {
    "fips": "08117",
    "state": "Colorado",
    "name": "Summit County",
    "lat": 39.6210227,
    "lng": -106.1375545
  },
  {
    "fips": "20035",
    "state": "Kansas",
    "name": "Cowley County",
    "lat": 37.2345068,
    "lng": -96.8372468
  },
  {
    "fips": "05071",
    "state": "Arkansas",
    "name": "Johnson County",
    "lat": 35.5733586,
    "lng": -93.4663223
  },
  {
    "fips": "36041",
    "state": "New York",
    "name": "Hamilton County",
    "lat": 43.6578786,
    "lng": -74.5024556
  },
  {
    "fips": "51045",
    "state": "Virginia",
    "name": "Craig County",
    "lat": 37.4736031,
    "lng": -80.2310507
  },
  {
    "fips": "48083",
    "state": "Texas",
    "name": "Coleman County",
    "lat": 31.9142052,
    "lng": -99.3466223
  },
  {
    "fips": "02290",
    "state": "Alaska",
    "name": "Yukon-Koyukuk Census Area",
    "lat": 65.3757158,
    "lng": -151.5778778
  },
  {
    "fips": "04017",
    "state": "Arizona",
    "name": "Navajo County",
    "lat": 35.3907852,
    "lng": -110.3210248
  },
  {
    "fips": "28085",
    "state": "Mississippi",
    "name": "Lincoln County",
    "lat": 31.5352155,
    "lng": -90.4535663
  },
  {
    "fips": "48357",
    "state": "Texas",
    "name": "Ochiltree County",
    "lat": 36.2787442,
    "lng": -100.8158636
  },
  {
    "fips": "48103",
    "state": "Texas",
    "name": "Crane County",
    "lat": 31.4227965,
    "lng": -102.4877739
  },
  {
    "fips": "56003",
    "state": "Wyoming",
    "name": "Big Horn County",
    "lat": 44.5251167,
    "lng": -107.9948477
  },
  {
    "fips": "47081",
    "state": "Tennessee",
    "name": "Hickman County",
    "lat": 35.8022905,
    "lng": -87.4671007
  },
  {
    "fips": "28143",
    "state": "Mississippi",
    "name": "Tunica County",
    "lat": 34.6522011,
    "lng": -90.3717697
  },
  {
    "fips": "29081",
    "state": "Missouri",
    "name": "Harrison County",
    "lat": 40.34562,
    "lng": -93.9925818
  },
  {
    "fips": "72029",
    "name": "Canvanas Municipio",
    "lat": 18.3235851,
    "lng": -65.8832059
  },
  {
    "fips": "18005",
    "state": "Indiana",
    "name": "Bartholomew County",
    "lat": 39.205843,
    "lng": -85.8979988
  },
  {
    "fips": "13223",
    "state": "Geogia",
    "name": "Paulding County",
    "lat": 33.921026,
    "lng": -84.8671616
  },
  {
    "fips": "39015",
    "state": "Ohio",
    "name": "Brown County",
    "lat": 38.9313769,
    "lng": -83.8667723
  },
  {
    "fips": "47141",
    "state": "Tennessee",
    "name": "Putnam County",
    "lat": 36.1409404,
    "lng": -85.4961801
  },
  {
    "fips": "38101",
    "state": "North Dakota",
    "name": "Ward County",
    "lat": 48.2166858,
    "lng": -101.5405369
  },
  {
    "fips": "25027",
    "state": "Massachusetts",
    "name": "Worcester County",
    "lat": 42.3116934,
    "lng": -71.940282
  },
  {
    "fips": "39091",
    "state": "Ohio",
    "name": "Logan County",
    "lat": 40.3875532,
    "lng": -83.766343
  },
  {
    "fips": "06031",
    "state": "California",
    "name": "Kings County",
    "lat": 36.072478,
    "lng": -119.8155301
  },
  {
    "fips": "06073",
    "state": "California",
    "name": "San Diego County",
    "lat": 33.0236041,
    "lng": -116.7761174
  },
  {
    "fips": "72123",
    "name": "Salinas Municipio",
    "lat": 17.9714853,
    "lng": -66.2622515
  },
  {
    "fips": "13079",
    "state": "Geogia",
    "name": "Crawford County",
    "lat": 32.7094283,
    "lng": -83.9791874
  },
  {
    "fips": "72103",
    "name": "Naguabo Municipio",
    "lat": 18.2110697,
    "lng": -65.735749
  },
  {
    "fips": "29037",
    "state": "Missouri",
    "name": "Cass County",
    "lat": 38.6471588,
    "lng": -94.3542424
  },
  {
    "fips": "36027",
    "state": "New York",
    "name": "Dutchess County",
    "lat": 41.7547699,
    "lng": -73.7400411
  },
  {
    "fips": "48477",
    "state": "Texas",
    "name": "Washington County",
    "lat": 30.2150752,
    "lng": -96.4102717
  },
  {
    "fips": "08101",
    "state": "Colorado",
    "name": "Pueblo County",
    "lat": 38.1706581,
    "lng": -104.4898924
  },
  {
    "fips": "29067",
    "state": "Missouri",
    "name": "Douglas County",
    "lat": 36.9465168,
    "lng": -92.5158918
  },
  {
    "fips": "38009",
    "state": "North Dakota",
    "name": "Bottineau County",
    "lat": 48.7944116,
    "lng": -100.8312572
  },
  {
    "fips": "37051",
    "state": "North Carolina",
    "name": "Cumberland County",
    "lat": 35.0501921,
    "lng": -78.8287187
  },
  {
    "fips": "56017",
    "state": "Wyoming",
    "name": "Hot Springs County",
    "lat": 43.7202092,
    "lng": -108.4350765
  },
  {
    "fips": "26001",
    "state": "Michigan",
    "name": "Alcona County",
    "lat": 44.6825347,
    "lng": -82.8340798
  },
  {
    "fips": "06061",
    "state": "California",
    "name": "Placer County",
    "lat": 39.0620323,
    "lng": -120.7227181
  },
  {
    "fips": "05129",
    "state": "Arkansas",
    "name": "Searcy County",
    "lat": 35.8963868,
    "lng": -92.6958884
  },
  {
    "fips": "48305",
    "state": "Texas",
    "name": "Lynn County",
    "lat": 33.1784124,
    "lng": -101.8184933
  },
  {
    "fips": "36077",
    "state": "New York",
    "name": "Otsego County",
    "lat": 42.6297762,
    "lng": -75.028841
  },
  {
    "fips": "37153",
    "state": "North Carolina",
    "name": "Richmond County",
    "lat": 35.004636,
    "lng": -79.7556946
  },
  {
    "fips": "37093",
    "state": "North Carolina",
    "name": "Hoke County",
    "lat": 35.0172328,
    "lng": -79.2419635
  },
  {
    "fips": "31131",
    "state": "Nebraska",
    "name": "Otoe County",
    "lat": 40.6379916,
    "lng": -96.1310274
  },
  {
    "fips": "42023",
    "state": "Pennsylvania",
    "name": "Cameron County",
    "lat": 41.4382883,
    "lng": -78.1983145
  },
  {
    "fips": "45035",
    "state": "South Carolina",
    "name": "Dorchester County",
    "lat": 33.0821859,
    "lng": -80.4046966
  },
  {
    "fips": "27161",
    "state": "Minnesota",
    "name": "Waseca County",
    "lat": 44.0184598,
    "lng": -93.5898443
  },
  {
    "fips": "46015",
    "state": "South Dakota",
    "name": "Brule County",
    "lat": 43.7298803,
    "lng": -99.092941
  },
  {
    "fips": "47177",
    "state": "Tennessee",
    "name": "Warren County",
    "lat": 35.6782498,
    "lng": -85.7773428
  },
  {
    "fips": "17023",
    "state": "Illinois",
    "name": "Clark County",
    "lat": 39.3323642,
    "lng": -87.7916872
  },
  {
    "fips": "21201",
    "state": "Kentucky",
    "name": "Robertson County",
    "lat": 38.5138262,
    "lng": -84.0637574
  },
  {
    "fips": "47095",
    "state": "Tennessee",
    "name": "Lake County",
    "lat": 36.3339054,
    "lng": -89.4855365
  },
  {
    "fips": "45015",
    "state": "South Carolina",
    "name": "Berkeley County",
    "lat": 33.2077,
    "lng": -79.9536554
  },
  {
    "fips": "05051",
    "state": "Arkansas",
    "name": "Garland County",
    "lat": 34.5788613,
    "lng": -93.1469148
  },
  {
    "fips": "20139",
    "state": "Kansas",
    "name": "Osage County",
    "lat": 38.6484085,
    "lng": -95.7075964
  },
  {
    "fips": "39155",
    "state": "Ohio",
    "name": "Trumbull County",
    "lat": 41.3059114,
    "lng": -80.7687013
  },
  {
    "fips": "48333",
    "state": "Texas",
    "name": "Mills County",
    "lat": 31.4948885,
    "lng": -98.5946231
  },
  {
    "fips": "48359",
    "state": "Texas",
    "name": "Oldham County",
    "lat": 35.4019206,
    "lng": -102.5976203
  },
  {
    "fips": "42019",
    "state": "Pennsylvania",
    "name": "Butler County",
    "lat": 40.9138467,
    "lng": -79.9189776
  },
  {
    "fips": "16049",
    "state": "Idaho",
    "name": "Idaho County",
    "lat": 45.849644,
    "lng": -115.4673371
  },
  {
    "fips": "20115",
    "state": "Kansas",
    "name": "Marion County",
    "lat": 38.3596474,
    "lng": -97.1027707
  },
  {
    "fips": "51029",
    "state": "Virginia",
    "name": "Buckingham County",
    "lat": 37.573928,
    "lng": -78.5291687
  },
  {
    "fips": "37025",
    "state": "North Carolina",
    "name": "Cabarrus County",
    "lat": 35.388369,
    "lng": -80.5526938
  },
  {
    "fips": "29225",
    "state": "Missouri",
    "name": "Webster County",
    "lat": 37.2808043,
    "lng": -92.8760795
  },
  {
    "fips": "49011",
    "state": "Utah",
    "name": "Davis County",
    "lat": 41.0375594,
    "lng": -112.2019434
  },
  {
    "fips": "27033",
    "state": "Minnesota",
    "name": "Cottonwood County",
    "lat": 44.0107107,
    "lng": -95.1831303
  },
  {
    "fips": "12093",
    "state": "Florida",
    "name": "Okeechobee County",
    "lat": 27.3855924,
    "lng": -80.8873884
  },
  {
    "fips": "13291",
    "state": "Geogia",
    "name": "Union County",
    "lat": 34.833333,
    "lng": -83.9892568
  },
  {
    "fips": "19013",
    "state": "Iowa",
    "name": "Black Hawk County",
    "lat": 42.4715414,
    "lng": -92.3080334
  },
  {
    "fips": "48403",
    "state": "Texas",
    "name": "Sabine County",
    "lat": 31.3432997,
    "lng": -93.8519129
  },
  {
    "fips": "39131",
    "state": "Ohio",
    "name": "Pike County",
    "lat": 39.0713596,
    "lng": -83.0529085
  },
  {
    "fips": "01125",
    "state": "Alabama",
    "name": "Tuscaloosa County",
    "lat": 33.2902416,
    "lng": -87.522735
  },
  {
    "fips": "01131",
    "state": "Alabama",
    "name": "Wilcox County",
    "lat": 31.9900845,
    "lng": -87.3049075
  },
  {
    "fips": "28097",
    "state": "Mississippi",
    "name": "Montgomery County",
    "lat": 33.5007144,
    "lng": -89.6396251
  },
  {
    "fips": "31099",
    "state": "Nebraska",
    "name": "Kearney County",
    "lat": 40.5091198,
    "lng": -98.9476019
  },
  {
    "fips": "31087",
    "state": "Nebraska",
    "name": "Hitchcock County",
    "lat": 40.1768964,
    "lng": -101.044217
  },
  {
    "fips": "10003",
    "state": "Delaware",
    "name": "New Castle County",
    "lat": 39.5759152,
    "lng": -75.6441324
  },
  {
    "fips": "16081",
    "state": "Idaho",
    "name": "Teton County",
    "lat": 43.7609939,
    "lng": -111.2117653
  },
  {
    "fips": "17161",
    "state": "Illinois",
    "name": "Rock Island County",
    "lat": 41.4684044,
    "lng": -90.5722031
  },
  {
    "fips": "51073",
    "state": "Virginia",
    "name": "Gloucester County",
    "lat": 37.4035413,
    "lng": -76.5235051
  },
  {
    "fips": "05133",
    "state": "Arkansas",
    "name": "Sevier County",
    "lat": 33.9948773,
    "lng": -94.2432792
  },
  {
    "fips": "18017",
    "state": "Indiana",
    "name": "Cass County",
    "lat": 40.7537986,
    "lng": -86.3551685
  },
  {
    "fips": "16077",
    "state": "Idaho",
    "name": "Power County",
    "lat": 42.694126,
    "lng": -112.844407
  },
  {
    "fips": "18015",
    "state": "Indiana",
    "name": "Carroll County",
    "lat": 40.5849801,
    "lng": -86.5651412
  },
  {
    "fips": "42101",
    "state": "Pennsylvania",
    "name": "Philadelphia County",
    "lat": 40.0093755,
    "lng": -75.1333459
  },
  {
    "fips": "56043",
    "state": "Wyoming",
    "name": "Washakie County",
    "lat": 43.8788305,
    "lng": -107.669052
  },
  {
    "fips": "37029",
    "state": "North Carolina",
    "name": "Camden County",
    "lat": 36.3423438,
    "lng": -76.1624876
  },
  {
    "fips": "36109",
    "state": "New York",
    "name": "Tompkins County",
    "lat": 42.4530029,
    "lng": -76.4734815
  },
  {
    "fips": "05069",
    "state": "Arkansas",
    "name": "Jefferson County",
    "lat": 34.2776955,
    "lng": -91.9307012
  },
  {
    "fips": "05079",
    "state": "Arkansas",
    "name": "Lincoln County",
    "lat": 33.957675,
    "lng": -91.7276258
  },
  {
    "fips": "55123",
    "state": "Wisconsin",
    "name": "Vernon County",
    "lat": 43.5993661,
    "lng": -90.8219835
  },
  {
    "fips": "29093",
    "state": "Missouri",
    "name": "Iron County",
    "lat": 37.6259709,
    "lng": -90.6995869
  },
  {
    "fips": "48223",
    "state": "Texas",
    "name": "Hopkins County",
    "lat": 33.1489586,
    "lng": -95.5651936
  },
  {
    "fips": "36001",
    "state": "New York",
    "name": "Albany County",
    "lat": 42.5882401,
    "lng": -73.9740095
  },
  {
    "fips": "48225",
    "state": "Texas",
    "name": "Houston County",
    "lat": 31.3230362,
    "lng": -95.4215995
  },
  {
    "fips": "39111",
    "state": "Ohio",
    "name": "Monroe County",
    "lat": 39.7262533,
    "lng": -81.0909868
  },
  {
    "fips": "20165",
    "state": "Kansas",
    "name": "Rush County",
    "lat": 38.5235917,
    "lng": -99.3091827
  },
  {
    "fips": "18107",
    "state": "Indiana",
    "name": "Montgomery County",
    "lat": 40.0402962,
    "lng": -86.8927145
  },
  {
    "fips": "20187",
    "state": "Kansas",
    "name": "Stanton County",
    "lat": 37.5659319,
    "lng": -101.7893829
  },
  {
    "fips": "21129",
    "state": "Kentucky",
    "name": "Lee County",
    "lat": 37.608116,
    "lng": -83.7192475
  },
  {
    "fips": "27071",
    "state": "Minnesota",
    "name": "Koochiching County",
    "lat": 48.2454895,
    "lng": -93.7828417
  },
  {
    "fips": "48029",
    "state": "Texas",
    "name": "Bexar County",
    "lat": 29.4486708,
    "lng": -98.5201465
  },
  {
    "fips": "08013",
    "state": "Colorado",
    "name": "Boulder County",
    "lat": 40.0949699,
    "lng": -105.3976911
  },
  {
    "fips": "47089",
    "state": "Tennessee",
    "name": "Jefferson County",
    "lat": 36.0484787,
    "lng": -83.4409664
  },
  {
    "fips": "40097",
    "state": "Oklahoma",
    "name": "Mayes County",
    "lat": 36.303804,
    "lng": -95.2356382
  },
  {
    "fips": "27165",
    "state": "Minnesota",
    "name": "Watonwan County",
    "lat": 43.9783661,
    "lng": -94.6141282
  },
  {
    "fips": "16013",
    "state": "Idaho",
    "name": "Blaine County",
    "lat": 43.394192,
    "lng": -113.9553713
  },
  {
    "fips": "22053",
    "state": "Louisiana",
    "name": "Jefferson Davis Parish",
    "lat": 30.2695293,
    "lng": -92.8162205
  },
  {
    "fips": "46119",
    "state": "South Dakota",
    "name": "Sully County",
    "lat": 44.722325,
    "lng": -100.1313985
  },
  {
    "fips": "08031",
    "state": "Colorado",
    "name": "Denver County",
    "lat": 39.7618502,
    "lng": -104.8811054
  },
  {
    "fips": "40029",
    "state": "Oklahoma",
    "name": "Coal County",
    "lat": 34.5828612,
    "lng": -96.288039
  },
  {
    "fips": "30011",
    "state": "Montana",
    "name": "Carter County",
    "lat": 45.5168247,
    "lng": -104.5153243
  },
  {
    "fips": "48461",
    "state": "Texas",
    "name": "Upton County",
    "lat": 31.3538163,
    "lng": -102.0415461
  },
  {
    "fips": "18051",
    "state": "Indiana",
    "name": "Gibson County",
    "lat": 38.3173981,
    "lng": -87.5805231
  },
  {
    "fips": "31105",
    "state": "Nebraska",
    "name": "Kimball County",
    "lat": 41.1992736,
    "lng": -103.7031528
  },
  {
    "fips": "17093",
    "state": "Illinois",
    "name": "Kendall County",
    "lat": 41.5881403,
    "lng": -88.4306257
  },
  {
    "fips": "11001",
    "state": "District of Columbia",
    "name": "District of Columbia",
    "lat": 38.9041031,
    "lng": -77.017229
  },
  {
    "fips": "08085",
    "state": "Colorado",
    "name": "Montrose County",
    "lat": 38.4075069,
    "lng": -108.2662815
  },
  {
    "fips": "27171",
    "state": "Minnesota",
    "name": "Wright County",
    "lat": 45.1750914,
    "lng": -93.9663965
  },
  {
    "fips": "55059",
    "state": "Wisconsin",
    "name": "Kenosha County",
    "lat": 42.5797028,
    "lng": -87.4248983
  },
  {
    "fips": "08037",
    "state": "Colorado",
    "name": "Eagle County",
    "lat": 39.6269919,
    "lng": -106.6951694
  },
  {
    "fips": "06075",
    "state": "California",
    "name": "San Francisco County",
    "lat": 37.7272391,
    "lng": -123.0322294
  },
  {
    "fips": "08113",
    "state": "Colorado",
    "name": "San Miguel County",
    "lat": 38.0093735,
    "lng": -108.427326
  },
  {
    "fips": "02020",
    "state": "Alaska",
    "name": "Anchorage Municipality",
    "lat": 61.1742503,
    "lng": -149.2843294
  },
  {
    "fips": "12109",
    "state": "Florida",
    "name": "St. Johns County",
    "lat": 29.8906441,
    "lng": -81.3839483
  },
  {
    "fips": "28019",
    "state": "Mississippi",
    "name": "Choctaw County",
    "lat": 33.3459638,
    "lng": -89.2513319
  },
  {
    "fips": "29079",
    "state": "Missouri",
    "name": "Grundy County",
    "lat": 40.1125409,
    "lng": -93.5650538
  },
  {
    "fips": "26085",
    "state": "Michigan",
    "name": "Lake County",
    "lat": 43.9951867,
    "lng": -85.8113997
  },
  {
    "fips": "26139",
    "state": "Michigan",
    "name": "Ottawa County",
    "lat": 42.9423461,
    "lng": -86.6553423
  },
  {
    "fips": "17031",
    "state": "Illinois",
    "name": "Cook County",
    "lat": 41.8942937,
    "lng": -87.6454546
  },
  {
    "fips": "17059",
    "state": "Illinois",
    "name": "Gallatin County",
    "lat": 37.7686768,
    "lng": -88.2279642
  },
  {
    "fips": "45047",
    "state": "South Carolina",
    "name": "Greenwood County",
    "lat": 34.1557959,
    "lng": -82.1278759
  },
  {
    "fips": "20059",
    "state": "Kansas",
    "name": "Franklin County",
    "lat": 38.5580187,
    "lng": -95.2789618
  },
  {
    "fips": "27027",
    "state": "Minnesota",
    "name": "Clay County",
    "lat": 46.8983772,
    "lng": -96.4949007
  },
  {
    "fips": "47075",
    "state": "Tennessee",
    "name": "Haywood County",
    "lat": 35.5866898,
    "lng": -89.2825359
  },
  {
    "fips": "49003",
    "state": "Utah",
    "name": "Box Elder County",
    "lat": 41.6218833,
    "lng": -113.0436525
  },
  {
    "fips": "28139",
    "state": "Mississippi",
    "name": "Tippah County",
    "lat": 34.7636183,
    "lng": -88.9188185
  },
  {
    "fips": "54051",
    "state": "West Virginia",
    "name": "Marshall County",
    "lat": 39.8544259,
    "lng": -80.6717944
  },
  {
    "fips": "54035",
    "state": "West Virginia",
    "name": "Jackson County",
    "lat": 38.8342339,
    "lng": -81.6777168
  },
  {
    "fips": "16039",
    "state": "Idaho",
    "name": "Elmore County",
    "lat": 43.3946984,
    "lng": -115.471205
  },
  {
    "fips": "24005",
    "state": "Maryland",
    "name": "Baltimore County",
    "lat": 39.4431666,
    "lng": -76.6165693
  },
  {
    "fips": "38005",
    "state": "North Dakota",
    "name": "Benson County",
    "lat": 48.071743,
    "lng": -99.3511517
  },
  {
    "fips": "29163",
    "state": "Missouri",
    "name": "Pike County",
    "lat": 39.3399592,
    "lng": -91.1716071
  },
  {
    "fips": "39087",
    "state": "Ohio",
    "name": "Lawrence County",
    "lat": 38.6038659,
    "lng": -82.5171856
  },
  {
    "fips": "29201",
    "state": "Missouri",
    "name": "Scott County",
    "lat": 37.0477927,
    "lng": -89.5680975
  },
  {
    "fips": "39001",
    "state": "Ohio",
    "name": "Adams County",
    "lat": 38.8344683,
    "lng": -83.4780816
  },
  {
    "fips": "48143",
    "state": "Texas",
    "name": "Erath County",
    "lat": 32.2381358,
    "lng": -98.2223769
  },
  {
    "fips": "13137",
    "state": "Geogia",
    "name": "Habersham County",
    "lat": 34.6343924,
    "lng": -83.5258749
  },
  {
    "fips": "13319",
    "state": "Geogia",
    "name": "Wilkinson County",
    "lat": 32.8042663,
    "lng": -83.1755122
  },
  {
    "fips": "54061",
    "state": "West Virginia",
    "name": "Monongalia County",
    "lat": 39.6336448,
    "lng": -80.0590736
  },
  {
    "fips": "39033",
    "state": "Ohio",
    "name": "Crawford County",
    "lat": 40.8485244,
    "lng": -82.9247827
  },
  {
    "fips": "12027",
    "state": "Florida",
    "name": "DeSoto County",
    "lat": 27.1905809,
    "lng": -81.8062531
  },
  {
    "fips": "09011",
    "state": "Connecticut",
    "name": "New London County",
    "lat": 41.4726514,
    "lng": -72.1086329
  },
  {
    "fips": "39059",
    "state": "Ohio",
    "name": "Guernsey County",
    "lat": 40.0566648,
    "lng": -81.497875
  },
  {
    "fips": "26015",
    "state": "Michigan",
    "name": "Barry County",
    "lat": 42.5828109,
    "lng": -85.3145503
  },
  {
    "fips": "29209",
    "state": "Missouri",
    "name": "Stone County",
    "lat": 36.751004,
    "lng": -93.4737009
  },
  {
    "fips": "51760",
    "state": "Virginia",
    "name": "Richmond city",
    "lat": 37.531399,
    "lng": -77.4760085
  },
  {
    "fips": "37169",
    "state": "North Carolina",
    "name": "Stokes County",
    "lat": 36.3935056,
    "lng": -80.2661995
  },
  {
    "fips": "19039",
    "state": "Iowa",
    "name": "Clarke County",
    "lat": 41.0291908,
    "lng": -93.7840961
  },
  {
    "fips": "19065",
    "state": "Iowa",
    "name": "Fayette County",
    "lat": 42.8641219,
    "lng": -91.8403761
  },
  {
    "fips": "06041",
    "state": "California",
    "name": "Marin County",
    "lat": 38.0518169,
    "lng": -122.7459738
  },
  {
    "fips": "48381",
    "state": "Texas",
    "name": "Randall County",
    "lat": 34.962529,
    "lng": -101.8955472
  },
  {
    "fips": "48401",
    "state": "Texas",
    "name": "Rusk County",
    "lat": 32.1094232,
    "lng": -94.7563823
  },
  {
    "fips": "19181",
    "state": "Iowa",
    "name": "Warren County",
    "lat": 41.3368623,
    "lng": -93.5642216
  },
  {
    "fips": "39161",
    "state": "Ohio",
    "name": "Van Wert County",
    "lat": 40.8555203,
    "lng": -84.5857751
  },
  {
    "fips": "12043",
    "state": "Florida",
    "name": "Glades County",
    "lat": 26.9548102,
    "lng": -81.1908197
  },
  {
    "fips": "13199",
    "state": "Geogia",
    "name": "Meriwether County",
    "lat": 33.0292436,
    "lng": -84.6670413
  },
  {
    "fips": "08023",
    "state": "Colorado",
    "name": "Costilla County",
    "lat": 37.2775474,
    "lng": -105.4289399
  },
  {
    "fips": "48099",
    "state": "Texas",
    "name": "Coryell County",
    "lat": 31.3911774,
    "lng": -97.7980223
  },
  {
    "fips": "19001",
    "state": "Iowa",
    "name": "Adair County",
    "lat": 41.3285283,
    "lng": -94.4781643
  },
  {
    "fips": "13053",
    "state": "Geogia",
    "name": "Chattahoochee County",
    "lat": 32.3474454,
    "lng": -84.7880206
  },
  {
    "fips": "06043",
    "state": "California",
    "name": "Mariposa County",
    "lat": 37.5700335,
    "lng": -119.9128599
  },
  {
    "fips": "29089",
    "state": "Missouri",
    "name": "Howard County",
    "lat": 39.143365,
    "lng": -92.6959255
  },
  {
    "fips": "41047",
    "state": "Oregon",
    "name": "Marion County",
    "lat": 44.9008984,
    "lng": -122.5762602
  },
  {
    "fips": "55079",
    "state": "Wisconsin",
    "name": "Milwaukee County",
    "lat": 43.0176524,
    "lng": -87.4815485
  },
  {
    "fips": "27139",
    "state": "Minnesota",
    "name": "Scott County",
    "lat": 44.651805,
    "lng": -93.5337311
  },
  {
    "fips": "39129",
    "state": "Ohio",
    "name": "Pickaway County",
    "lat": 39.648947,
    "lng": -83.0528267
  },
  {
    "fips": "51145",
    "state": "Virginia",
    "name": "Powhatan County",
    "lat": 37.5494041,
    "lng": -77.9128553
  },
  {
    "fips": "08014",
    "state": "Colorado",
    "name": "Broomfield County",
    "lat": 39.9533016,
    "lng": -105.0520384
  },
  {
    "fips": "47099",
    "state": "Tennessee",
    "name": "Lawrence County",
    "lat": 35.2204764,
    "lng": -87.396546
  },
  {
    "fips": "26009",
    "state": "Michigan",
    "name": "Antrim County",
    "lat": 45.0054553,
    "lng": -85.175639
  },
  {
    "fips": "45069",
    "state": "South Carolina",
    "name": "Marlboro County",
    "lat": 34.6018053,
    "lng": -79.6779418
  },
  {
    "fips": "16009",
    "state": "Idaho",
    "name": "Benewah County",
    "lat": 47.2184513,
    "lng": -116.6335414
  },
  {
    "fips": "17103",
    "state": "Illinois",
    "name": "Lee County",
    "lat": 41.7474419,
    "lng": -89.2993505
  },
  {
    "fips": "31127",
    "state": "Nebraska",
    "name": "Nemaha County",
    "lat": 40.3852358,
    "lng": -95.8530563
  },
  {
    "fips": "37031",
    "state": "North Carolina",
    "name": "Carteret County",
    "lat": 34.858313,
    "lng": -76.5269665
  },
  {
    "fips": "20149",
    "state": "Kansas",
    "name": "Pottawatomie County",
    "lat": 39.3821868,
    "lng": -96.3371126
  },
  {
    "fips": "26075",
    "state": "Michigan",
    "name": "Jackson County",
    "lat": 42.2484738,
    "lng": -84.4208679
  },
  {
    "fips": "48091",
    "state": "Texas",
    "name": "Comal County",
    "lat": 29.8054913,
    "lng": -98.260544
  },
  {
    "fips": "25019",
    "state": "Massachusetts",
    "name": "Nantucket County",
    "lat": 41.3058778,
    "lng": -70.1419099
  },
  {
    "fips": "45009",
    "state": "South Carolina",
    "name": "Bamberg County",
    "lat": 33.2030211,
    "lng": -81.0531607
  },
  {
    "fips": "48007",
    "state": "Texas",
    "name": "Aransas County",
    "lat": 28.1042254,
    "lng": -96.977983
  },
  {
    "fips": "13019",
    "state": "Geogia",
    "name": "Berrien County",
    "lat": 31.2886522,
    "lng": -83.2278695
  },
  {
    "fips": "18165",
    "state": "Indiana",
    "name": "Vermillion County",
    "lat": 39.8540452,
    "lng": -87.4620713
  },
  {
    "fips": "26143",
    "state": "Michigan",
    "name": "Roscommon County",
    "lat": 44.3395168,
    "lng": -84.6112715
  },
  {
    "fips": "37005",
    "state": "North Carolina",
    "name": "Alleghany County",
    "lat": 36.4893563,
    "lng": -81.1322988
  },
  {
    "fips": "06035",
    "state": "California",
    "name": "Lassen County",
    "lat": 40.7210862,
    "lng": -120.6299518
  },
  {
    "fips": "51610",
    "state": "Virginia",
    "name": "Falls Church city",
    "lat": 38.884722,
    "lng": -77.1756027
  },
  {
    "fips": "12081",
    "state": "Florida",
    "name": "Manatee County",
    "lat": 27.4816825,
    "lng": -82.3687669
  },
  {
    "fips": "39119",
    "state": "Ohio",
    "name": "Muskingum County",
    "lat": 39.9660457,
    "lng": -81.9435064
  },
  {
    "fips": "08015",
    "state": "Colorado",
    "name": "Chaffee County",
    "lat": 38.7382237,
    "lng": -106.3166853
  },
  {
    "fips": "08025",
    "state": "Colorado",
    "name": "Crowley County",
    "lat": 38.3061801,
    "lng": -103.7727363
  },
  {
    "fips": "08043",
    "state": "Colorado",
    "name": "Fremont County",
    "lat": 38.4551696,
    "lng": -105.4249583
  },
  {
    "fips": "28109",
    "state": "Mississippi",
    "name": "Pearl River County",
    "lat": 30.7747929,
    "lng": -89.5869043
  },
  {
    "fips": "28111",
    "state": "Mississippi",
    "name": "Perry County",
    "lat": 31.1693073,
    "lng": -88.9887554
  },
  {
    "fips": "31041",
    "state": "Nebraska",
    "name": "Custer County",
    "lat": 41.3938927,
    "lng": -99.7268662
  },
  {
    "fips": "12013",
    "state": "Florida",
    "name": "Calhoun County",
    "lat": 30.3888013,
    "lng": -85.1979155
  },
  {
    "fips": "21117",
    "state": "Kentucky",
    "name": "Kenton County",
    "lat": 38.9305031,
    "lng": -84.5334381
  },
  {
    "fips": "19037",
    "state": "Iowa",
    "name": "Chickasaw County",
    "lat": 43.0597409,
    "lng": -92.3172101
  },
  {
    "fips": "17037",
    "state": "Illinois",
    "name": "DeKalb County",
    "lat": 41.8946125,
    "lng": -88.768991
  },
  {
    "fips": "19081",
    "state": "Iowa",
    "name": "Hancock County",
    "lat": 43.0754105,
    "lng": -93.7436965
  },
  {
    "fips": "38089",
    "state": "North Dakota",
    "name": "Stark County",
    "lat": 46.8170312,
    "lng": -102.6620262
  },
  {
    "fips": "26095",
    "state": "Michigan",
    "name": "Luce County",
    "lat": 46.9406018,
    "lng": -85.5823683
  },
  {
    "fips": "40019",
    "state": "Oklahoma",
    "name": "Carter County",
    "lat": 34.2518484,
    "lng": -97.2879273
  },
  {
    "fips": "37139",
    "state": "North Carolina",
    "name": "Pasquotank County",
    "lat": 36.265184,
    "lng": -76.2606959
  },
  {
    "fips": "35055",
    "state": "New Mexico",
    "name": "Taos County",
    "lat": 36.5765287,
    "lng": -105.6379865
  },
  {
    "fips": "28011",
    "state": "Mississippi",
    "name": "Bolivar County",
    "lat": 33.7991391,
    "lng": -90.8841199
  },
  {
    "fips": "32023",
    "state": "Nevada",
    "name": "Nye County",
    "lat": 37.9658636,
    "lng": -116.4590107
  },
  {
    "fips": "47073",
    "state": "Tennessee",
    "name": "Hawkins County",
    "lat": 36.4522106,
    "lng": -82.9313857
  },
  {
    "fips": "38011",
    "state": "North Dakota",
    "name": "Bowman County",
    "lat": 46.1101438,
    "lng": -103.5059433
  },
  {
    "fips": "42057",
    "state": "Pennsylvania",
    "name": "Fulton County",
    "lat": 39.9107505,
    "lng": -78.1226171
  },
  {
    "fips": "22055",
    "state": "Louisiana",
    "name": "Lafayette Parish",
    "lat": 30.2065065,
    "lng": -92.06417
  },
  {
    "fips": "48237",
    "state": "Texas",
    "name": "Jack County",
    "lat": 33.2320933,
    "lng": -98.1716089
  },
  {
    "fips": "17175",
    "state": "Illinois",
    "name": "Stark County",
    "lat": 41.0969077,
    "lng": -89.7974111
  },
  {
    "fips": "40055",
    "state": "Oklahoma",
    "name": "Greer County",
    "lat": 34.9338533,
    "lng": -99.5529675
  },
  {
    "fips": "48211",
    "state": "Texas",
    "name": "Hemphill County",
    "lat": 35.8159564,
    "lng": -100.2792102
  },
  {
    "fips": "16069",
    "state": "Idaho",
    "name": "Nez Perce County",
    "lat": 46.3337914,
    "lng": -116.7609091
  },
  {
    "fips": "46129",
    "state": "South Dakota",
    "name": "Walworth County",
    "lat": 45.4276046,
    "lng": -100.0278563
  },
  {
    "fips": "06055",
    "state": "California",
    "name": "Napa County",
    "lat": 38.5070999,
    "lng": -122.3259045
  },
  {
    "fips": "40033",
    "state": "Oklahoma",
    "name": "Cotton County",
    "lat": 34.290676,
    "lng": -98.3734379
  },
  {
    "fips": "29221",
    "state": "Missouri",
    "name": "Washington County",
    "lat": 37.9426107,
    "lng": -90.8970179
  },
  {
    "fips": "36011",
    "state": "New York",
    "name": "Cayuga County",
    "lat": 43.0085456,
    "lng": -76.5745866
  },
  {
    "fips": "48417",
    "state": "Texas",
    "name": "Shackelford County",
    "lat": 32.7438198,
    "lng": -99.3470045
  },
  {
    "fips": "48407",
    "state": "Texas",
    "name": "San Jacinto County",
    "lat": 30.5743884,
    "lng": -95.1631363
  },
  {
    "fips": "19061",
    "state": "Iowa",
    "name": "Dubuque County",
    "lat": 42.4634808,
    "lng": -90.8787708
  },
  {
    "fips": "51075",
    "state": "Virginia",
    "name": "Goochland County",
    "lat": 37.7188141,
    "lng": -77.9176263
  },
  {
    "fips": "20181",
    "state": "Kansas",
    "name": "Sherman County",
    "lat": 39.3513521,
    "lng": -101.719859
  },
  {
    "fips": "39139",
    "state": "Ohio",
    "name": "Richland County",
    "lat": 40.774159,
    "lng": -82.5427812
  },
  {
    "fips": "17001",
    "state": "Illinois",
    "name": "Adams County",
    "lat": 39.9860525,
    "lng": -91.1949607
  },
  {
    "fips": "39021",
    "state": "Ohio",
    "name": "Champaign County",
    "lat": 40.1327594,
    "lng": -83.7675425
  },
  {
    "fips": "33019",
    "state": "New Hampshire",
    "name": "Sullivan County",
    "lat": 43.3611883,
    "lng": -72.2220839
  },
  {
    "fips": "17075",
    "state": "Illinois",
    "name": "Iroquois County",
    "lat": 40.7488665,
    "lng": -87.833601
  },
  {
    "fips": "19157",
    "state": "Iowa",
    "name": "Poweshiek County",
    "lat": 41.6845262,
    "lng": -92.5228819
  },
  {
    "fips": "39169",
    "state": "Ohio",
    "name": "Wayne County",
    "lat": 40.8296612,
    "lng": -81.8871942
  },
  {
    "fips": "13113",
    "state": "Geogia",
    "name": "Fayette County",
    "lat": 33.4127172,
    "lng": -84.4939407
  },
  {
    "fips": "13141",
    "state": "Geogia",
    "name": "Hancock County",
    "lat": 33.2692195,
    "lng": -83.0004653
  },
  {
    "fips": "48259",
    "state": "Texas",
    "name": "Kendall County",
    "lat": 29.9435246,
    "lng": -98.7092693
  },
  {
    "fips": "36039",
    "state": "New York",
    "name": "Greene County",
    "lat": 42.2869702,
    "lng": -74.1495421
  },
  {
    "fips": "51137",
    "state": "Virginia",
    "name": "Orange County",
    "lat": 38.250193,
    "lng": -78.0096224
  },
  {
    "fips": "40089",
    "state": "Oklahoma",
    "name": "McCurtain County",
    "lat": 34.1170728,
    "lng": -94.7660863
  },
  {
    "fips": "13277",
    "state": "Geogia",
    "name": "Tift County",
    "lat": 31.4570027,
    "lng": -83.5259307
  },
  {
    "fips": "31025",
    "state": "Nebraska",
    "name": "Cass County",
    "lat": 40.9098778,
    "lng": -96.1406086
  },
  {
    "fips": "46077",
    "state": "South Dakota",
    "name": "Kingsbury County",
    "lat": 44.3629687,
    "lng": -97.499313
  },